[
  {
    "name": "Rubicon Llc",
    "lat": 30.196382,
    "lon": -91.01735,
    "kind": "Chemicals",
    "sector": "Chemicals",
    "releases_lbs": 7136311.75,
    "sources": [
      "TRI"
    ]
  },
  {
    "name": "Flopam Inc - Flopam Facility",
    "lat": 30.270966,
    "lon": -91.147496,
    "kind": "Chemicals",
    "sector": "Chemicals",
    "releases_lbs": 4065599.0,
    "sources": [
      "FRS",
      "RMP",
      "TRI"
    ]
  },
  {
    "name": "Syngenta Crop Protection Llc Saint Gabriel Facility",
    "lat": 30.248838,
    "lon": -91.103368,
    "kind": "Chemicals",
    "sector": "Chemicals",
    "releases_lbs": 2379284.717,
    "sources": [
      "TRI"
    ]
  },
  {
    "name": "The Dow Chemical Co - Louisiana Operations",
    "lat": 30.322917,
    "lon": -91.252614,
    "kind": "Chemicals",
    "sector": "Chemicals",
    "releases_lbs": 1993688.69,
    "sources": [
      "TRI"
    ]
  },
  {
    "name": "Exxonmobil Chemicals",
    "lat": 30.494559,
    "lon": -91.169718,
    "kind": "Chemicals",
    "sector": "Chemicals",
    "releases_lbs": 1725618.2,
    "sources": [
      "FRS",
      "RMP",
      "TRI"
    ]
  },
  {
    "name": "Basf Corp - Geismar Site",
    "lat": 30.191262,
    "lon": -91.014521,
    "kind": "Chemicals",
    "sector": "Chemicals",
    "releases_lbs": 1625917.0,
    "sources": [
      "FRS",
      "RMP",
      "TRI"
    ]
  },
  {
    "name": "Exxonmobil Baton Rouge Refinery",
    "lat": 30.485824,
    "lon": -91.169178,
    "kind": "Petroleum",
    "sector": "Petroleum",
    "releases_lbs": 1621764.241,
    "sources": [
      "FRS",
      "RMP",
      "TRI"
    ]
  },
  {
    "name": "Pcs Nitrogen Fertilizer Lp",
    "lat": 30.241893,
    "lon": -91.050516,
    "kind": "Chemicals",
    "sector": "Chemicals",
    "releases_lbs": 1460649.53,
    "sources": [
      "TRI"
    ]
  },
  {
    "name": "Kinder Morgan Liquids Terminals Llc - Geismar Methanol Terminal",
    "lat": 30.205692,
    "lon": -91.02101,
    "kind": "petroleum_terminal",
    "sector": "Chemicals",
    "releases_lbs": 1372273.528,
    "sources": [
      "FRS",
      "OSM",
      "RMP",
      "TRI"
    ]
  },
  {
    "name": "Lion Copolymer Geismar Llc",
    "lat": 30.215393,
    "lon": -91.002017,
    "kind": "Chemicals",
    "sector": "Chemicals",
    "releases_lbs": 1019679.0,
    "sources": [
      "TRI"
    ]
  },
  {
    "name": "St. Gabriel Facility",
    "lat": 30.251913,
    "lon": -91.089887,
    "kind": "Chemicals",
    "sector": "Chemicals",
    "releases_lbs": 730159.59,
    "sources": [
      "FRS",
      "RMP",
      "TRI"
    ]
  },
  {
    "name": "Port Allen Refinery",
    "lat": 30.474574,
    "lon": -91.211246,
    "kind": "Petroleum",
    "sector": "Petroleum",
    "releases_lbs": 660771.0,
    "sources": [
      "FRS",
      "RMP",
      "TRI"
    ]
  },
  {
    "name": "Westlake Chemicals & Vinyls Llc",
    "lat": 30.273136,
    "lon": -91.180275,
    "kind": "Chemicals",
    "sector": "Chemicals",
    "releases_lbs": 566993.891,
    "sources": [
      "TRI"
    ]
  },
  {
    "name": "Tsrc Specialty Materials Llc",
    "lat": 30.322917,
    "lon": -91.252614,
    "kind": "Chemicals",
    "sector": "Chemicals",
    "releases_lbs": 374980.0,
    "sources": [
      "TRI"
    ]
  },
  {
    "name": "Shintech Plaquemine Plant",
    "lat": 30.273408,
    "lon": -91.17248,
    "kind": "Chemicals",
    "sector": "Chemicals",
    "releases_lbs": 371830.866,
    "sources": [
      "TRI"
    ]
  },
  {
    "name": "Honeywell International Inc-Baton Rouge Plant",
    "lat": 30.474339,
    "lon": -91.183078,
    "kind": "Chemicals",
    "sector": "Chemicals",
    "releases_lbs": 358558.115,
    "sources": [
      "TRI"
    ]
  },
  {
    "name": "Olin Corporation- Plaquemine",
    "lat": 30.322917,
    "lon": -91.252614,
    "kind": "Chemicals",
    "sector": "Chemicals",
    "releases_lbs": 348748.837,
    "sources": [
      "FRS",
      "RMP",
      "TRI"
    ]
  },
  {
    "name": "Honeywell International Inc Geismar Plant",
    "lat": 30.222843,
    "lon": -91.057633,
    "kind": "Chemicals",
    "sector": "Chemicals",
    "releases_lbs": 346987.811,
    "sources": [
      "TRI"
    ]
  },
  {
    "name": "Shell Chemical Lp",
    "lat": 30.182205,
    "lon": -91.007564,
    "kind": "Chemicals",
    "sector": "Chemicals",
    "releases_lbs": 309996.0,
    "sources": [
      "TRI"
    ]
  },
  {
    "name": "Cos-Mar Company",
    "lat": 30.219165,
    "lon": -91.06817,
    "kind": "Chemicals",
    "sector": "Chemicals",
    "releases_lbs": 219892.0,
    "sources": [
      "FRS",
      "TRI"
    ]
  },
  {
    "name": "Occidental Chemical Holding Corp - Geismar Plant",
    "lat": 30.196218,
    "lon": -90.968443,
    "kind": "Chemicals",
    "sector": "Chemicals",
    "releases_lbs": 206193.812,
    "sources": [
      "TRI"
    ]
  },
  {
    "name": "Formosa Plastics Corp Louisiana",
    "lat": 30.498083,
    "lon": -91.185503,
    "kind": "chemical",
    "sector": "Chemicals",
    "releases_lbs": 202763.694,
    "sources": [
      "FRS",
      "OSM",
      "RMP",
      "TRI"
    ]
  },
  {
    "name": "Shell Catalyst & Technologies",
    "lat": 30.494585,
    "lon": -91.214476,
    "kind": "Chemicals",
    "sector": "Chemicals",
    "releases_lbs": 168863.0,
    "sources": [
      "TRI"
    ]
  },
  {
    "name": "Westlake Vinyls Co Lp",
    "lat": 30.215843,
    "lon": -91.002539,
    "kind": "Chemicals",
    "sector": "Chemicals",
    "releases_lbs": 168731.571,
    "sources": [
      "FRS",
      "TRI"
    ]
  },
  {
    "name": "Exxonmobil Baton Rouge Plastics Plant",
    "lat": 30.553539,
    "lon": -91.174836,
    "kind": "Chemicals",
    "sector": "Chemicals",
    "releases_lbs": 164687.57,
    "sources": [
      "FRS",
      "RMP",
      "TRI"
    ]
  },
  {
    "name": "Innophos Inc - Innophos Geismar Plant",
    "lat": 30.218011,
    "lon": -91.053588,
    "kind": "fertilizer",
    "sector": "Chemicals",
    "releases_lbs": 133168.0,
    "sources": [
      "FRS",
      "OSM",
      "TRI"
    ]
  },
  {
    "name": "Thermaldyne Llc - Port Allen Facility",
    "lat": 30.435133,
    "lon": -91.234555,
    "kind": "Petroleum",
    "sector": "Petroleum",
    "releases_lbs": 131490.575,
    "sources": [
      "FRS",
      "TRI"
    ]
  },
  {
    "name": "Nova Chemicals Olefins Llc - Geismar Ethylene Plant",
    "lat": 30.236389,
    "lon": -91.052524,
    "kind": "chemical",
    "sector": "Chemicals",
    "releases_lbs": 128554.0,
    "sources": [
      "FRS",
      "OSM",
      "RMP",
      "TRI"
    ]
  },
  {
    "name": "Oxbow Calcining Llc - Baton Rouge Calcined Coke Plant",
    "lat": 30.580321,
    "lon": -91.238586,
    "kind": "coke_plant",
    "sector": "Petroleum",
    "releases_lbs": 73775.506,
    "sources": [
      "FRS",
      "OSM",
      "TRI"
    ]
  },
  {
    "name": "Tokai Carbon Cb Ltd - Addis Facility",
    "lat": 30.330355,
    "lon": -91.278961,
    "kind": "works",
    "sector": "Chemicals",
    "releases_lbs": 72800.1,
    "sources": [
      "FRS",
      "OSM",
      "TRI"
    ]
  },
  {
    "name": "Geismar Fractination Plant",
    "lat": 30.215685,
    "lon": -91.044617,
    "kind": "Natural Gas Processing",
    "sector": "Natural Gas Processing",
    "releases_lbs": 68419.0,
    "sources": [
      "TRI"
    ]
  },
  {
    "name": "Exxon Mobil Corporation - Baton Rouge Polyolefins Plant",
    "lat": 30.563454,
    "lon": -91.204305,
    "kind": "plastic_manufacturing",
    "sector": "Chemicals",
    "releases_lbs": 65351.02,
    "sources": [
      "FRS",
      "OSM",
      "RMP",
      "TRI"
    ]
  },
  {
    "name": "Great States Galvanizing",
    "lat": 30.642597,
    "lon": -91.25116,
    "kind": "Fabricated Metals",
    "sector": "Fabricated Metals",
    "releases_lbs": 62085.175,
    "sources": [
      "FRS",
      "TRI"
    ]
  },
  {
    "name": "Hexion Inc",
    "lat": 30.215975,
    "lon": -91.010018,
    "kind": "Chemicals",
    "sector": "Chemicals",
    "releases_lbs": 57631.0,
    "sources": [
      "TRI"
    ]
  },
  {
    "name": "Linde Geismar Facility",
    "lat": 30.196368,
    "lon": -91.017343,
    "kind": "Chemicals",
    "sector": "Chemicals",
    "releases_lbs": 55091.19,
    "sources": [
      "TRI"
    ]
  },
  {
    "name": "Boardwalk Louisiana Midstream Llc",
    "lat": 30.322447,
    "lon": -91.308628,
    "kind": "Petroleum Bulk Terminals",
    "sector": "Petroleum Bulk Terminals",
    "releases_lbs": 44563.75,
    "sources": [
      "TRI"
    ]
  },
  {
    "name": "Albemarle Corp",
    "lat": 30.498083,
    "lon": -91.185503,
    "kind": "chemical",
    "sector": "Chemicals",
    "releases_lbs": 39477.72,
    "sources": [
      "OSM",
      "TRI"
    ]
  },
  {
    "name": "Shintech Louisiana Llc",
    "lat": 30.331448,
    "lon": -91.25643,
    "kind": "Chemicals",
    "sector": "Chemicals",
    "releases_lbs": 37517.83,
    "sources": [
      "FRS",
      "TRI"
    ]
  },
  {
    "name": "Deltech Monomers Opco Llc - Baton Rouge Facility",
    "lat": 30.553128,
    "lon": -91.198595,
    "kind": "chemical",
    "sector": "Chemicals",
    "releases_lbs": 35845.0,
    "sources": [
      "FRS",
      "OSM",
      "TRI"
    ]
  },
  {
    "name": "Eco-Services Operations",
    "lat": 30.507857,
    "lon": -91.187702,
    "kind": "Chemicals",
    "sector": "Chemicals",
    "releases_lbs": 29493.768,
    "sources": [
      "TRI"
    ]
  },
  {
    "name": "Totalenergies Petrochemicals & Refining Usa, Inc. - Carville Polystyrene Plant",
    "lat": 30.219478,
    "lon": -91.072326,
    "kind": "Chemicals",
    "sector": "Chemicals",
    "releases_lbs": 24761.0,
    "sources": [
      "FRS",
      "TRI"
    ]
  },
  {
    "name": "Air Products-Baton Rouge Smr",
    "lat": 30.491011,
    "lon": -91.149453,
    "kind": "Chemicals",
    "sector": "Chemicals",
    "releases_lbs": 20586.0,
    "sources": [
      "TRI"
    ]
  },
  {
    "name": "Enterprise Products Operating Llc - Baton Rouge Fractionator & Propylene Concent",
    "lat": 30.479656,
    "lon": -91.201827,
    "kind": "Chemicals",
    "sector": "Chemicals",
    "releases_lbs": 19350.0,
    "sources": [
      "FRS",
      "RMP",
      "TRI"
    ]
  },
  {
    "name": "Eco Services Baton Rouge Site",
    "lat": 30.507843,
    "lon": -91.188115,
    "kind": "Chemicals",
    "sector": "Chemicals",
    "releases_lbs": 19140.0,
    "sources": [
      "FRS",
      "RMP",
      "TRI"
    ]
  },
  {
    "name": "Turner Industries Group Llc",
    "lat": 30.424809,
    "lon": -91.217041,
    "kind": "Fabricated Metals",
    "sector": "Fabricated Metals",
    "releases_lbs": 18609.8,
    "sources": [
      "TRI"
    ]
  },
  {
    "name": "Shaw Walker La Llc",
    "lat": 30.531167,
    "lon": -90.83734,
    "kind": "Fabricated Metals",
    "sector": "Fabricated Metals",
    "releases_lbs": 18061.73,
    "sources": [
      "TRI"
    ]
  },
  {
    "name": "Ineos Oxide A Div Of Ineos Americas Llc",
    "lat": 30.322917,
    "lon": -91.252614,
    "kind": "Chemicals",
    "sector": "Chemicals",
    "releases_lbs": 13831.46,
    "sources": [
      "TRI"
    ]
  },
  {
    "name": "Plaquemine Methocel",
    "lat": 30.266143,
    "lon": -91.260177,
    "kind": "Chemicals",
    "sector": "Chemicals",
    "releases_lbs": 12584.862,
    "sources": [
      "TRI"
    ]
  },
  {
    "name": "Riverside Fractionation Plant",
    "lat": 30.215225,
    "lon": -91.043781,
    "kind": "Natural Gas Processing",
    "sector": "Natural Gas Processing",
    "releases_lbs": 11416.0,
    "sources": [
      "TRI"
    ]
  },
  {
    "name": "Clean Harbors Baton Rouge Llc",
    "lat": 30.565228,
    "lon": -91.205235,
    "kind": "Hazardous Waste",
    "sector": "Hazardous Waste",
    "releases_lbs": 10767.82,
    "sources": [
      "FRS",
      "RMP",
      "TRI"
    ]
  },
  {
    "name": "W. R. Grace & Co - Conn",
    "lat": 30.491011,
    "lon": -91.149453,
    "kind": "Chemicals",
    "sector": "Chemicals",
    "releases_lbs": 10303.024,
    "sources": [
      "TRI"
    ]
  },
  {
    "name": "Azz Galvanizing - Louisiana Llc",
    "lat": 30.496776,
    "lon": -91.222481,
    "kind": "Fabricated Metals",
    "sector": "Fabricated Metals",
    "releases_lbs": 9967.958,
    "sources": [
      "TRI"
    ]
  },
  {
    "name": "Nexpera Llc - Nexpera-Burnside Facility",
    "lat": 30.126599,
    "lon": -90.914828,
    "kind": "Chemicals",
    "sector": "Chemicals",
    "releases_lbs": 9063.25,
    "sources": [
      "FRS",
      "RMP",
      "TRI"
    ]
  },
  {
    "name": "Basf North Geismar Site",
    "lat": 30.210506,
    "lon": -90.994879,
    "kind": "Chemicals",
    "sector": "Chemicals",
    "releases_lbs": 9020.002,
    "sources": [
      "TRI"
    ]
  },
  {
    "name": "Uop Llc Baton Rouge Plant",
    "lat": 30.507075,
    "lon": -91.191116,
    "kind": "Chemicals",
    "sector": "Chemicals",
    "releases_lbs": 6420.0,
    "sources": [
      "TRI"
    ]
  },
  {
    "name": "Exxon Mobil Corp - Baton Rouge Resin Finishing Plant",
    "lat": 30.553358,
    "lon": -91.198339,
    "kind": "Chemicals",
    "sector": "Chemicals",
    "releases_lbs": 6411.0,
    "sources": [
      "TRI"
    ]
  },
  {
    "name": "Se Tylose Louisiana Llc",
    "lat": 30.273408,
    "lon": -91.17248,
    "kind": "Chemicals",
    "sector": "Chemicals",
    "releases_lbs": 6103.22,
    "sources": [
      "TRI"
    ]
  },
  {
    "name": "Bcp Ingredients Inc",
    "lat": 30.251542,
    "lon": -91.088441,
    "kind": "chemical",
    "sector": "Food",
    "releases_lbs": 3905.58,
    "sources": [
      "FRS",
      "OSM",
      "RMP",
      "TRI"
    ]
  },
  {
    "name": "Enlink Lig Liquids Llc - Plaquemine Gas Plant",
    "lat": 30.235,
    "lon": -91.240077,
    "kind": "gas_plant",
    "sector": "Natural Gas Processing",
    "releases_lbs": 3568.0,
    "sources": [
      "OSM",
      "TRI"
    ]
  },
  {
    "name": "Anchorage Tank Farm",
    "lat": 30.475119,
    "lon": -91.221133,
    "kind": "oil_storage",
    "sector": "Petroleum",
    "releases_lbs": 3443.318,
    "sources": [
      "FRS",
      "OSM",
      "TRI"
    ]
  },
  {
    "name": "Mexichem Fluor Inc. - St. Gabriel Site",
    "lat": 30.235119,
    "lon": -91.09865,
    "kind": "chemical",
    "sector": "Chemicals",
    "releases_lbs": 3299.0,
    "sources": [
      "FRS",
      "OSM",
      "RMP",
      "TRI"
    ]
  },
  {
    "name": "Bercen Chemicals Llc",
    "lat": 30.487504,
    "lon": -90.926068,
    "kind": "chemical",
    "sector": "Chemicals",
    "releases_lbs": 2942.0,
    "sources": [
      "FRS",
      "OSM",
      "RMP",
      "TRI"
    ]
  },
  {
    "name": "Nachurs Alpine Solutions",
    "lat": 30.244028,
    "lon": -91.084554,
    "kind": "Chemicals",
    "sector": "Chemicals",
    "releases_lbs": 2384.401,
    "sources": [
      "TRI"
    ]
  },
  {
    "name": "Plant Maintenance Services - Pms St Gabriel Plant",
    "lat": 30.256277,
    "lon": -91.072196,
    "kind": "Plastics and Rubber",
    "sector": "Plastics and Rubber",
    "releases_lbs": 2116.0,
    "sources": [
      "FRS",
      "TRI"
    ]
  },
  {
    "name": "Reg Geismar Llc",
    "lat": 30.215406,
    "lon": -91.002032,
    "kind": "Chemicals",
    "sector": "Chemicals",
    "releases_lbs": 1840.61,
    "sources": [
      "TRI"
    ]
  },
  {
    "name": "Genesis Crude Oil Lp - Port Hudson Trucking Facility",
    "lat": 30.655122,
    "lon": -91.269951,
    "kind": "Petroleum Bulk Terminals",
    "sector": "Petroleum Bulk Terminals",
    "releases_lbs": 1830.57,
    "sources": [
      "FRS",
      "TRI"
    ]
  },
  {
    "name": "Brenntag Southwest Inc",
    "lat": 30.260185,
    "lon": -91.072475,
    "kind": "Chemical Wholesalers",
    "sector": "Chemical Wholesalers",
    "releases_lbs": 1774.0,
    "sources": [
      "FRS",
      "RMP",
      "TRI"
    ]
  },
  {
    "name": "Lion Copolymer Llc",
    "lat": 30.504786,
    "lon": -91.172362,
    "kind": "Chemicals",
    "sector": "Chemicals",
    "releases_lbs": 1394.0,
    "sources": [
      "FRS",
      "TRI"
    ]
  },
  {
    "name": "Future Pipe Industries Inc",
    "lat": 30.35596,
    "lon": -91.047003,
    "kind": "Plastics and Rubber",
    "sector": "Plastics and Rubber",
    "releases_lbs": 491.2,
    "sources": [
      "FRS",
      "TRI"
    ]
  },
  {
    "name": "Baton Rouge Asphalt Plant",
    "lat": 30.55979,
    "lon": -91.202379,
    "kind": "Petroleum",
    "sector": "Petroleum",
    "releases_lbs": 322.46,
    "sources": [
      "FRS",
      "TRI"
    ]
  },
  {
    "name": "Geismar Fabrication Facility",
    "lat": 30.211583,
    "lon": -90.997175,
    "kind": "Fabricated Metals",
    "sector": "Fabricated Metals",
    "releases_lbs": 132.0,
    "sources": [
      "FRS",
      "TRI"
    ]
  },
  {
    "name": "Delta St. Gabriel",
    "lat": 30.250438,
    "lon": -91.084128,
    "kind": "Chemical Wholesalers",
    "sector": "Chemical Wholesalers",
    "releases_lbs": 105.86,
    "sources": [
      "FRS",
      "RMP",
      "TRI"
    ]
  },
  {
    "name": "Pioneer Americas Llc D/B/A/ Olin Chlor Alkali",
    "lat": 30.241624,
    "lon": -91.108671,
    "kind": "chemical",
    "sector": "Chemicals",
    "releases_lbs": 68.61,
    "sources": [
      "FRS",
      "OSM",
      "RMP",
      "TRI"
    ]
  },
  {
    "name": "Georgia-Pacific Consumer Operations Llc - Port Hudson Operations",
    "lat": 30.646866,
    "lon": -91.276119,
    "kind": "Paper",
    "sector": "Paper",
    "releases_lbs": 29.0,
    "sources": [
      "FRS",
      "RMP",
      "TRI"
    ]
  },
  {
    "name": "Univar Solutions Geismar Ge",
    "lat": 30.239257,
    "lon": -91.003007,
    "kind": "Chemical Wholesalers",
    "sector": "Chemical Wholesalers",
    "releases_lbs": 27.853,
    "sources": [
      "TRI"
    ]
  },
  {
    "name": "Port Allen Plant",
    "lat": 30.44379,
    "lon": -91.22769,
    "kind": "Petroleum",
    "sector": "Petroleum",
    "releases_lbs": 3.98,
    "sources": [
      "FRS",
      "TRI"
    ]
  },
  {
    "name": "Best Block Llc - Southland Block",
    "lat": 30.470625,
    "lon": -91.140879,
    "kind": "Nonmetallic Mineral Product",
    "sector": "Nonmetallic Mineral Product",
    "releases_lbs": 0.047,
    "sources": [
      "FRS",
      "TRI"
    ]
  },
  {
    "name": "Airgas Southwest",
    "lat": 30.230165,
    "lon": -91.018999,
    "kind": "Chemical Wholesalers",
    "sector": "Chemical Wholesalers",
    "releases_lbs": 0.0,
    "sources": [
      "FRS",
      "TRI"
    ]
  },
  {
    "name": "Cmc Steel Fabricators Inc Dba Cmc Capitol Steel",
    "lat": 30.472261,
    "lon": -91.01807,
    "kind": "Fabricated Metals",
    "sector": "Fabricated Metals",
    "releases_lbs": 0.0,
    "sources": [
      "FRS",
      "TRI"
    ]
  },
  {
    "name": "Harcros Chemicals Inc - St Gabriel Facility",
    "lat": 30.250712,
    "lon": -91.085203,
    "kind": "distributor",
    "sector": "Chemical Wholesalers",
    "releases_lbs": 0.0,
    "sources": [
      "FRS",
      "OSM",
      "RMP",
      "TRI"
    ]
  },
  {
    "name": "Holcim-Sor, Inc. - Pecue",
    "lat": 30.3581,
    "lon": -91.047554,
    "kind": "Nonmetallic Mineral Product",
    "sector": "Nonmetallic Mineral Product",
    "releases_lbs": 0.0,
    "sources": [
      "FRS",
      "TRI"
    ]
  },
  {
    "name": "Holcim-Sor, Inc.-Choctaw",
    "lat": 30.469602,
    "lon": -91.135566,
    "kind": "Nonmetallic Mineral Product",
    "sector": "Nonmetallic Mineral Product",
    "releases_lbs": 0.0,
    "sources": [
      "FRS",
      "TRI"
    ]
  },
  {
    "name": "Holcim-Sor, Inc.-Gonazales",
    "lat": 30.21051,
    "lon": -90.957688,
    "kind": "Nonmetallic Mineral Product",
    "sector": "Nonmetallic Mineral Product",
    "releases_lbs": 0.0,
    "sources": [
      "FRS",
      "TRI"
    ]
  },
  {
    "name": "Multi-Chem Group Llc - Geismar Facility",
    "lat": 30.229166,
    "lon": -91.024487,
    "kind": "Chemicals",
    "sector": "Chemicals",
    "releases_lbs": 0.0,
    "sources": [
      "FRS",
      "TRI"
    ]
  },
  {
    "name": "Sun Coast Resources Inc: Baton Rouge",
    "lat": 30.530493,
    "lon": -91.165251,
    "kind": "Petroleum Bulk Terminals",
    "sector": "Petroleum Bulk Terminals",
    "releases_lbs": 0.0,
    "sources": [
      "FRS",
      "TRI"
    ]
  },
  {
    "name": "1071 Leesville Ave",
    "lat": 30.461693,
    "lon": -91.178884,
    "kind": "AIRS/AQS",
    "sector": "AIR MONITORING SITE",
    "releases_lbs": null,
    "sources": [
      "FRS"
    ]
  },
  {
    "name": "1413 East Washington Street",
    "lat": 30.44333,
    "lon": -91.18748,
    "kind": "ACRES",
    "sector": "BROWNFIELDS PROPERTY",
    "releases_lbs": null,
    "sources": [
      "FRS"
    ]
  },
  {
    "name": "1415 Scenic Highway",
    "lat": 30.44333,
    "lon": -91.18748,
    "kind": "ACRES",
    "sector": "BROWNFIELDS PROPERTY",
    "releases_lbs": null,
    "sources": [
      "FRS"
    ]
  },
  {
    "name": "1509 Government St Project",
    "lat": 30.44371,
    "lon": -91.172746,
    "kind": "RCRAINFO",
    "sector": "VSQG",
    "releases_lbs": null,
    "sources": [
      "FRS"
    ]
  },
  {
    "name": "1705 Highland Road",
    "lat": 30.432,
    "lon": -91.18321,
    "kind": "ACRES",
    "sector": "BROWNFIELDS PROPERTY",
    "releases_lbs": null,
    "sources": [
      "FRS"
    ]
  },
  {
    "name": "19Th Jdc Clerk Of Court Parish Of Ebr",
    "lat": 30.44424,
    "lon": -91.18752,
    "kind": "RCRAINFO",
    "sector": "VSQG",
    "releases_lbs": null,
    "sources": [
      "FRS"
    ]
  },
  {
    "name": "2 Undesignated Lots And Lot S-9",
    "lat": 30.46589,
    "lon": -91.18335,
    "kind": "ACRES",
    "sector": "BROWNFIELDS PROPERTY",
    "releases_lbs": null,
    "sources": [
      "FRS"
    ]
  },
  {
    "name": "2-Row-2 Auto Spa",
    "lat": 30.282504,
    "lon": -90.921406,
    "kind": "NPDES",
    "sector": "ICIS-NPDES UNPERMITTED",
    "releases_lbs": null,
    "sources": [
      "FRS"
    ]
  },
  {
    "name": "2003 Realty Company Llc - City Market",
    "lat": 30.53426,
    "lon": -90.98954,
    "kind": "NPDES",
    "sector": "ICIS-NPDES NON-MAJOR",
    "releases_lbs": null,
    "sources": [
      "FRS"
    ]
  },
  {
    "name": "211 Antrim Dr, Apt A",
    "lat": 30.45411,
    "lon": -91.0733,
    "kind": "NPDES",
    "sector": "ICIS-NPDES NON-MAJOR",
    "releases_lbs": null,
    "sources": [
      "FRS"
    ]
  },
  {
    "name": "225 Inflatables",
    "lat": 30.27339,
    "lon": -90.92125,
    "kind": "NPDES",
    "sector": "ICIS-NPDES NON-MAJOR",
    "releases_lbs": null,
    "sources": [
      "FRS"
    ]
  },
  {
    "name": "24 Hour Wrecker",
    "lat": 30.505521,
    "lon": -90.808476,
    "kind": "RCRAINFO",
    "sector": "VSQG",
    "releases_lbs": null,
    "sources": [
      "FRS"
    ]
  },
  {
    "name": "2528 Tune Inc",
    "lat": 30.42652,
    "lon": -91.05304,
    "kind": "RCRAINFO",
    "sector": "UNSPECIFIED UNIVERSE",
    "releases_lbs": null,
    "sources": [
      "FRS"
    ]
  },
  {
    "name": "2590 Associates Llc - Rouzan",
    "lat": 30.41081,
    "lon": -91.1425,
    "kind": "NPDES",
    "sector": "ICIS-NPDES NON-MAJOR, STORM WATER CONSTRUCTION",
    "releases_lbs": null,
    "sources": [
      "FRS"
    ]
  },
  {
    "name": "2Brv, Llc - Made To Go Rv",
    "lat": 30.55195,
    "lon": -91.197581,
    "kind": "NPDES",
    "sector": "ICIS-NPDES NON-MAJOR",
    "releases_lbs": null,
    "sources": [
      "FRS"
    ]
  },
  {
    "name": "3 D Cycle",
    "lat": 30.66212,
    "lon": -91.150565,
    "kind": "RCRAINFO",
    "sector": "UNSPECIFIED UNIVERSE",
    "releases_lbs": null,
    "sources": [
      "FRS"
    ]
  },
  {
    "name": "3 Point Properties Private Hanger",
    "lat": 30.52503,
    "lon": -91.14654,
    "kind": "NPDES",
    "sector": "ICIS-NPDES NON-MAJOR, STORM WATER CONSTRUCTION",
    "releases_lbs": null,
    "sources": [
      "FRS"
    ]
  },
  {
    "name": "316 Inc",
    "lat": 30.26417,
    "lon": -90.97191,
    "kind": "ICIS",
    "sector": "FORMAL ENFORCEMENT ACTION",
    "releases_lbs": null,
    "sources": [
      "FRS"
    ]
  },
  {
    "name": "3190 Washington Street",
    "lat": 30.58906,
    "lon": -91.16733,
    "kind": "ACRES",
    "sector": "BROWNFIELDS PROPERTY",
    "releases_lbs": null,
    "sources": [
      "FRS"
    ]
  },
  {
    "name": "333 Court At East Boyd Llc",
    "lat": 30.40078,
    "lon": -91.17524,
    "kind": "NPDES",
    "sector": "ICIS-NPDES NON-MAJOR, STORM WATER CONSTRUCTION",
    "releases_lbs": null,
    "sources": [
      "FRS"
    ]
  },
  {
    "name": "3Sk Properties, Llc - Outer Banks @ Cypress Mill Town Lakes",
    "lat": 30.38136,
    "lon": -91.32183,
    "kind": "NPDES",
    "sector": "ICIS-NPDES NON-MAJOR, STORM WATER CONSTRUCTION",
    "releases_lbs": null,
    "sources": [
      "FRS"
    ]
  },
  {
    "name": "4 Way Auto Part",
    "lat": 30.22466,
    "lon": -90.86915,
    "kind": "RCRAINFO",
    "sector": "OTHER HAZARDOUS WASTE ACTIVITIES",
    "releases_lbs": null,
    "sources": [
      "FRS"
    ]
  },
  {
    "name": "4-H Club Road Property",
    "lat": 30.464153,
    "lon": -90.971608,
    "kind": "ACRES",
    "sector": "BROWNFIELDS PROPERTY",
    "releases_lbs": null,
    "sources": [
      "FRS"
    ]
  },
  {
    "name": "4-H Equipment, Llc",
    "lat": 30.39512,
    "lon": -90.921273,
    "kind": "NPDES",
    "sector": "ICIS-NPDES UNPERMITTED",
    "releases_lbs": null,
    "sources": [
      "FRS"
    ]
  },
  {
    "name": "4-Way Mhp",
    "lat": 30.39536,
    "lon": -90.85427,
    "kind": "NPDES",
    "sector": "ICIS-NPDES NON-MAJOR, ICIS-NPDES UNPERMITTED",
    "releases_lbs": null,
    "sources": [
      "FRS"
    ]
  },
  {
    "name": "415 Trailer Park",
    "lat": 30.471302,
    "lon": -91.249553,
    "kind": "NPDES",
    "sector": "ICIS-NPDES NON-MAJOR",
    "releases_lbs": null,
    "sources": [
      "FRS"
    ]
  },
  {
    "name": "456 Highlandia Llc",
    "lat": 30.33858,
    "lon": -91.02548,
    "kind": "NPDES",
    "sector": "ICIS-NPDES NON-MAJOR",
    "releases_lbs": null,
    "sources": [
      "FRS"
    ]
  },
  {
    "name": "4911 I-10 Frontage Llc",
    "lat": 30.452933,
    "lon": -91.275883,
    "kind": "NPDES",
    "sector": "ICIS-NPDES NON-MAJOR",
    "releases_lbs": null,
    "sources": [
      "FRS"
    ]
  },
  {
    "name": "4B Plastics Inc",
    "lat": 30.47237,
    "lon": -91.04312,
    "kind": "RCRAINFO",
    "sector": "UNSPECIFIED UNIVERSE",
    "releases_lbs": null,
    "sources": [
      "FRS"
    ]
  },
  {
    "name": "5310 Flannery Road, Llc - Store #144",
    "lat": 30.49779,
    "lon": -91.04319,
    "kind": "NPDES",
    "sector": "ICIS-NPDES NON-MAJOR",
    "releases_lbs": null,
    "sources": [
      "FRS"
    ]
  },
  {
    "name": "5321 Greenwell Springs Rd, Br108",
    "lat": 30.44333,
    "lon": -91.18748,
    "kind": "ACRES",
    "sector": "BROWNFIELDS PROPERTY",
    "releases_lbs": null,
    "sources": [
      "FRS"
    ]
  },
  {
    "name": "577 Properties Llc - Cruzin Express Carwash",
    "lat": 30.52149,
    "lon": -91.15132,
    "kind": "NPDES",
    "sector": "ICIS-NPDES NON-MAJOR",
    "releases_lbs": null,
    "sources": [
      "FRS"
    ]
  },
  {
    "name": "621 Plaza",
    "lat": 30.269444,
    "lon": -90.970556,
    "kind": "NPDES",
    "sector": "ICIS-NPDES NON-MAJOR",
    "releases_lbs": null,
    "sources": [
      "FRS"
    ]
  },
  {
    "name": "7H Legacy Property Llc",
    "lat": 30.449671,
    "lon": -91.262898,
    "kind": "NPDES",
    "sector": "ICIS-NPDES NON-MAJOR",
    "releases_lbs": null,
    "sources": [
      "FRS"
    ]
  },
  {
    "name": "84 Lumber",
    "lat": 30.21138,
    "lon": -90.89099,
    "kind": "NPDES",
    "sector": "ICIS-NPDES NON-MAJOR, STORM WATER CONSTRUCTION",
    "releases_lbs": null,
    "sources": [
      "FRS"
    ]
  },
  {
    "name": "84 Lumber Co",
    "lat": 30.47315,
    "lon": -91.09645,
    "kind": "NPDES",
    "sector": "ICIS-NPDES NON-MAJOR",
    "releases_lbs": null,
    "sources": [
      "FRS"
    ]
  },
  {
    "name": "9222 Ashland Road",
    "lat": 30.20403,
    "lon": -90.96218,
    "kind": "RCRAINFO",
    "sector": "UNSPECIFIED UNIVERSE",
    "releases_lbs": null,
    "sources": [
      "FRS"
    ]
  },
  {
    "name": "927 Carter Avenue",
    "lat": 30.440654,
    "lon": -91.103173,
    "kind": "NPDES",
    "sector": "ICIS-NPDES NON-MAJOR, STORM WATER CONSTRUCTION",
    "releases_lbs": null,
    "sources": [
      "FRS"
    ]
  },
  {
    "name": "9400-50 Scotland Avenue",
    "lat": 30.44333,
    "lon": -91.18748,
    "kind": "ACRES",
    "sector": "BROWNFIELDS PROPERTY",
    "releases_lbs": null,
    "sources": [
      "FRS"
    ]
  },
  {
    "name": "A & B Automotive",
    "lat": 30.46795,
    "lon": -91.11515,
    "kind": "NPDES, RCRAINFO",
    "sector": "ICIS-NPDES UNPERMITTED, UNSPECIFIED UNIVERSE",
    "releases_lbs": null,
    "sources": [
      "FRS"
    ]
  },
  {
    "name": "A & L Mhp",
    "lat": 30.45405,
    "lon": -90.86215,
    "kind": "NPDES",
    "sector": "ICIS-NPDES NON-MAJOR, ICIS-NPDES UNPERMITTED",
    "releases_lbs": null,
    "sources": [
      "FRS"
    ]
  },
  {
    "name": "A & M Collision Llc",
    "lat": 30.25467,
    "lon": -90.94702,
    "kind": "RCRAINFO",
    "sector": "VSQG",
    "releases_lbs": null,
    "sources": [
      "FRS"
    ]
  },
  {
    "name": "A & W Auto Body",
    "lat": 30.45227,
    "lon": -91.14819,
    "kind": "RCRAINFO",
    "sector": "OTHER HAZARDOUS WASTE ACTIVITIES",
    "releases_lbs": null,
    "sources": [
      "FRS"
    ]
  },
  {
    "name": "A & W Mobile Home Park",
    "lat": 30.46221,
    "lon": -90.94591,
    "kind": "NPDES",
    "sector": "ICIS-NPDES UNPERMITTED",
    "releases_lbs": null,
    "sources": [
      "FRS"
    ]
  },
  {
    "name": "A 1 Alternator & Starter",
    "lat": 30.472331,
    "lon": -90.963886,
    "kind": "RCRAINFO",
    "sector": "UNSPECIFIED UNIVERSE",
    "releases_lbs": null,
    "sources": [
      "FRS"
    ]
  },
  {
    "name": "A B Cronan Jr Md",
    "lat": 30.29189,
    "lon": -91.11473,
    "kind": "RCRAINFO",
    "sector": "VSQG",
    "releases_lbs": null,
    "sources": [
      "FRS"
    ]
  },
  {
    "name": "A Bear Tire",
    "lat": 30.40812,
    "lon": -91.02231,
    "kind": "RCRAINFO",
    "sector": "UNSPECIFIED UNIVERSE",
    "releases_lbs": null,
    "sources": [
      "FRS"
    ]
  },
  {
    "name": "A Bears Collision Cntr",
    "lat": 30.18964,
    "lon": -90.86757,
    "kind": "RCRAINFO",
    "sector": "VSQG",
    "releases_lbs": null,
    "sources": [
      "FRS"
    ]
  },
  {
    "name": "A Cup Of Joy Eatery & Play Yard, Llc",
    "lat": 30.32794,
    "lon": -90.979179,
    "kind": "NPDES",
    "sector": "ICIS-NPDES NON-MAJOR",
    "releases_lbs": null,
    "sources": [
      "FRS"
    ]
  },
  {
    "name": "A F U Local 102",
    "lat": 30.33586,
    "lon": -90.98767,
    "kind": "NPDES",
    "sector": "ICIS-NPDES UNPERMITTED",
    "releases_lbs": null,
    "sources": [
      "FRS"
    ]
  },
  {
    "name": "A Family Dental Care",
    "lat": 30.41762,
    "lon": -91.14005,
    "kind": "RCRAINFO",
    "sector": "VSQG",
    "releases_lbs": null,
    "sources": [
      "FRS"
    ]
  },
  {
    "name": "A G Safety Sales",
    "lat": 30.43862,
    "lon": -91.08249,
    "kind": "RCRAINFO",
    "sector": "UNSPECIFIED UNIVERSE",
    "releases_lbs": null,
    "sources": [
      "FRS"
    ]
  },
  {
    "name": "A K Durnin Chrysler-Jeep",
    "lat": 30.45149,
    "lon": -91.12052,
    "kind": "NPDES, RCRAINFO",
    "sector": "ICIS-NPDES NON-MAJOR, UNSPECIFIED UNIVERSE",
    "releases_lbs": null,
    "sources": [
      "FRS"
    ]
  },
  {
    "name": "A P Dodson Llc - A P Dodson Office",
    "lat": 30.509662,
    "lon": -91.0308,
    "kind": "NPDES",
    "sector": "ICIS-NPDES NON-MAJOR",
    "releases_lbs": null,
    "sources": [
      "FRS"
    ]
  },
  {
    "name": "A Plus Cleaner",
    "lat": 30.51798,
    "lon": -91.01603,
    "kind": "AIR, AIRS/AFS, RCRAINFO",
    "sector": "AIR EMISSIONS CLASSIFICATION UNKNOWN, AIR MINOR, VSQG",
    "releases_lbs": null,
    "sources": [
      "FRS"
    ]
  },
  {
    "name": "A Richard'S Mh Towing",
    "lat": 30.41577,
    "lon": -90.85427,
    "kind": "NPDES",
    "sector": "ICIS-NPDES UNPERMITTED",
    "releases_lbs": null,
    "sources": [
      "FRS"
    ]
  },
  {
    "name": "A Wilbert Sons 26 #1 Production Facility",
    "lat": 30.43051,
    "lon": -91.32041,
    "kind": "AIR, AIRS/AFS, EIS",
    "sector": "AIR EMISSIONS CLASSIFICATION UNKNOWN, AIR MINOR",
    "releases_lbs": null,
    "sources": [
      "FRS"
    ]
  },
  {
    "name": "A Wilbert'S Sons Llc 88 #2 Production Facility",
    "lat": 30.48535,
    "lon": -91.43407,
    "kind": "EIS",
    "sector": "AIR EMISSIONS CLASSIFICATION UNKNOWN",
    "releases_lbs": null,
    "sources": [
      "FRS"
    ]
  },
  {
    "name": "A Wilbert'S Sons Llc 93 #1 Production Facility",
    "lat": 30.47825,
    "lon": -91.45428,
    "kind": "EIS",
    "sector": "AIR EMISSIONS CLASSIFICATION UNKNOWN",
    "releases_lbs": null,
    "sources": [
      "FRS"
    ]
  },
  {
    "name": "A Wilberts Son Et Al #1 Production Facil",
    "lat": 30.11408,
    "lon": -91.25001,
    "kind": "AIR, AIRS/AFS, EIS",
    "sector": "AIR EMISSIONS CLASSIFICATION UNKNOWN, AIR MINOR",
    "releases_lbs": null,
    "sources": [
      "FRS"
    ]
  },
  {
    "name": "A Wilberts Sons 89 #1-Alt & 89 #2 Tank Battery - Erwinville Field",
    "lat": 30.48396,
    "lon": -91.4508,
    "kind": "EIS",
    "sector": "AIR EMISSIONS CLASSIFICATION UNKNOWN",
    "releases_lbs": null,
    "sources": [
      "FRS"
    ]
  },
  {
    "name": "A Wilberts Sons Llc 88 #1 Tank Battery - Erwinville Field",
    "lat": 30.48127,
    "lon": -91.44379,
    "kind": "EIS",
    "sector": "AIR EMISSIONS CLASSIFICATION UNKNOWN",
    "releases_lbs": null,
    "sources": [
      "FRS"
    ]
  },
  {
    "name": "A Wilberts Sons No. 1 Facility",
    "lat": 30.434412,
    "lon": -91.32382,
    "kind": "CEDRI",
    "sector": "COMPLIANCE AND EMISSIONS REPORTING",
    "releases_lbs": null,
    "sources": [
      "FRS"
    ]
  },
  {
    "name": "A Wilberts Sons No. 3 Facility",
    "lat": 30.427663,
    "lon": -91.32926,
    "kind": "CEDRI",
    "sector": "COMPLIANCE AND EMISSIONS REPORTING",
    "releases_lbs": null,
    "sources": [
      "FRS"
    ]
  },
  {
    "name": "A&B Labs Louisiana Inc",
    "lat": 30.42419,
    "lon": -91.0493,
    "kind": "RCRAINFO",
    "sector": "VSQG",
    "releases_lbs": null,
    "sources": [
      "FRS"
    ]
  },
  {
    "name": "A&D Investment Inc.",
    "lat": 30.483425,
    "lon": -90.930023,
    "kind": "ICIS, NPDES",
    "sector": "ENFORCEMENT/COMPLIANCE ACTIVITY, FORMAL ENFORCEMENT ACTION, ICIS-NPDES NON-MAJOR",
    "releases_lbs": null,
    "sources": [
      "FRS"
    ]
  },
  {
    "name": "A&M Body Shop",
    "lat": 30.227273,
    "lon": -90.99868,
    "kind": "RCRAINFO",
    "sector": "VSQG",
    "releases_lbs": null,
    "sources": [
      "FRS"
    ]
  },
  {
    "name": "A&M Seafood",
    "lat": 30.324178,
    "lon": -90.919584,
    "kind": "NPDES",
    "sector": "ICIS-NPDES NON-MAJOR",
    "releases_lbs": null,
    "sources": [
      "FRS"
    ]
  },
  {
    "name": "A&W Mobile Home Park",
    "lat": 30.483917,
    "lon": -90.921654,
    "kind": "NPDES",
    "sector": "ICIS-NPDES NON-MAJOR",
    "releases_lbs": null,
    "sources": [
      "FRS"
    ]
  },
  {
    "name": "A+ Cleaners",
    "lat": 30.27183,
    "lon": -91.240199,
    "kind": "RCRAINFO",
    "sector": "VSQG",
    "releases_lbs": null,
    "sources": [
      "FRS"
    ]
  },
  {
    "name": "A+Pressure Washing Llc",
    "lat": 30.40969,
    "lon": -91.07194,
    "kind": "NPDES",
    "sector": "ICIS-NPDES NON-MAJOR",
    "releases_lbs": null,
    "sources": [
      "FRS"
    ]
  },
  {
    "name": "A-Z Kidz Zone",
    "lat": 30.283611,
    "lon": -90.870278,
    "kind": "NPDES",
    "sector": "ICIS-NPDES NON-MAJOR",
    "releases_lbs": null,
    "sources": [
      "FRS"
    ]
  },
  {
    "name": "A. & T. Robert Enterprises Llc - Celerity La Group Inc",
    "lat": 30.17512,
    "lon": -90.87406,
    "kind": "NPDES",
    "sector": "ICIS-NPDES NON-MAJOR",
    "releases_lbs": null,
    "sources": [
      "FRS"
    ]
  },
  {
    "name": "A. N. Collette Oil Co. Inc.",
    "lat": 30.53751,
    "lon": -91.04884,
    "kind": "NPDES",
    "sector": "ICIS-NPDES NON-MAJOR",
    "releases_lbs": null,
    "sources": [
      "FRS"
    ]
  },
  {
    "name": "A. Singh Enterprises Llc - Best Stop Quick Mart #36",
    "lat": 30.58658,
    "lon": -91.0307,
    "kind": "NPDES",
    "sector": "ICIS-NPDES NON-MAJOR",
    "releases_lbs": null,
    "sources": [
      "FRS"
    ]
  },
  {
    "name": "A. Wilbert'S Sons Well #1",
    "lat": 30.151389,
    "lon": -91.390278,
    "kind": "NPDES",
    "sector": "ICIS-NPDES UNPERMITTED",
    "releases_lbs": null,
    "sources": [
      "FRS"
    ]
  },
  {
    "name": "A.P. Dodson, Llc - Waters Edge At Lexington",
    "lat": 30.32884,
    "lon": -91.12113,
    "kind": "NPDES",
    "sector": "ICIS-NPDES NON-MAJOR, STORM WATER CONSTRUCTION",
    "releases_lbs": null,
    "sources": [
      "FRS"
    ]
  },
  {
    "name": "A1 Auto Body",
    "lat": 30.56094,
    "lon": -90.93145,
    "kind": "RCRAINFO",
    "sector": "VSQG",
    "releases_lbs": null,
    "sources": [
      "FRS"
    ]
  },
  {
    "name": "A1 Lawn Mower Repair",
    "lat": 30.516534,
    "lon": -91.147169,
    "kind": "RCRAINFO",
    "sector": "UNSPECIFIED UNIVERSE",
    "releases_lbs": null,
    "sources": [
      "FRS"
    ]
  },
  {
    "name": "Aa Sulfuric Corp - Sulfuric Acid Plant",
    "lat": 30.21826,
    "lon": -91.05714,
    "kind": "AIRS/AFS, EIS",
    "sector": "AIR EMISSIONS CLASSIFICATION UNKNOWN, AIR MAJOR",
    "releases_lbs": null,
    "sources": [
      "FRS"
    ]
  },
  {
    "name": "Aaa Body & Paint",
    "lat": 30.49028,
    "lon": -91.12267,
    "kind": "RCRAINFO",
    "sector": "VSQG",
    "releases_lbs": null,
    "sources": [
      "FRS"
    ]
  },
  {
    "name": "Aaa Cooper Transportation",
    "lat": 30.469528,
    "lon": -91.094972,
    "kind": "NPDES",
    "sector": "ICIS-NPDES NON-MAJOR, STORM WATER INDUSTRIAL",
    "releases_lbs": null,
    "sources": [
      "FRS"
    ]
  },
  {
    "name": "Aaa Polishing & Plating Inc",
    "lat": 30.46724,
    "lon": -91.1144,
    "kind": "AIRS/AFS, ICIS, RCRAINFO",
    "sector": "AIR MINOR, FORMAL ENFORCEMENT ACTION, OTHER HAZARDOUS WASTE ACTIVITIES",
    "releases_lbs": null,
    "sources": [
      "FRS"
    ]
  },
  {
    "name": "Aaa Rent All",
    "lat": 30.40189,
    "lon": -91.05602,
    "kind": "NPDES",
    "sector": "ICIS-NPDES NON-MAJOR, ICIS-NPDES UNPERMITTED",
    "releases_lbs": null,
    "sources": [
      "FRS"
    ]
  },
  {
    "name": "Aaa Rent All",
    "lat": 30.48442,
    "lon": -90.94581,
    "kind": "NPDES",
    "sector": "ICIS-NPDES NON-MAJOR",
    "releases_lbs": null,
    "sources": [
      "FRS"
    ]
  },
  {
    "name": "Aaa Rent All",
    "lat": 30.39062,
    "lon": -91.10611,
    "kind": "AIR",
    "sector": "AIR EMISSIONS CLASSIFICATION UNKNOWN",
    "releases_lbs": null,
    "sources": [
      "FRS"
    ]
  },
  {
    "name": "Aaa Rent All Inc.",
    "lat": 30.4159,
    "lon": -91.14192,
    "kind": "NPDES",
    "sector": "ICIS-NPDES NON-MAJOR",
    "releases_lbs": null,
    "sources": [
      "FRS"
    ]
  },
  {
    "name": "Aaa Rent All, Inc.",
    "lat": 30.256698,
    "lon": -90.930151,
    "kind": "NPDES",
    "sector": "ICIS-NPDES NON-MAJOR",
    "releases_lbs": null,
    "sources": [
      "FRS"
    ]
  },
  {
    "name": "Aaa Rent All, Inc.",
    "lat": 30.476614,
    "lon": -90.956197,
    "kind": "NPDES",
    "sector": "ICIS-NPDES NON-MAJOR, ICIS-NPDES UNPERMITTED",
    "releases_lbs": null,
    "sources": [
      "FRS"
    ]
  },
  {
    "name": "Aaa Rent-All",
    "lat": 30.48939,
    "lon": -91.12203,
    "kind": "NPDES, RCRAINFO",
    "sector": "ICIS-NPDES NON-MAJOR, OTHER HAZARDOUS WASTE ACTIVITIES",
    "releases_lbs": null,
    "sources": [
      "FRS"
    ]
  },
  {
    "name": "Aaa Rent-All",
    "lat": 30.462412,
    "lon": -91.034547,
    "kind": "NPDES",
    "sector": "ICIS-NPDES NON-MAJOR",
    "releases_lbs": null,
    "sources": [
      "FRS"
    ]
  },
  {
    "name": "Aaa Rent-All",
    "lat": 30.253252,
    "lon": -90.926766,
    "kind": "NPDES",
    "sector": "ICIS-NPDES NON-MAJOR",
    "releases_lbs": null,
    "sources": [
      "FRS"
    ]
  },
  {
    "name": "Aae Acquisition Llc",
    "lat": 30.393,
    "lon": -91.05422,
    "kind": "NPDES",
    "sector": "ICIS-NPDES NON-MAJOR",
    "releases_lbs": null,
    "sources": [
      "FRS"
    ]
  },
  {
    "name": "Aamco Trans",
    "lat": 30.450633,
    "lon": -91.145294,
    "kind": "RCRAINFO",
    "sector": "VSQG",
    "releases_lbs": null,
    "sources": [
      "FRS"
    ]
  },
  {
    "name": "Aamco Trans",
    "lat": 30.46597,
    "lon": -91.01459,
    "kind": "RCRAINFO",
    "sector": "OTHER HAZARDOUS WASTE ACTIVITIES",
    "releases_lbs": null,
    "sources": [
      "FRS"
    ]
  },
  {
    "name": "Aaron Deloach - Deloach Corp",
    "lat": 30.34332,
    "lon": -91.00531,
    "kind": "NPDES",
    "sector": "ICIS-NPDES UNPERMITTED",
    "releases_lbs": null,
    "sources": [
      "FRS"
    ]
  },
  {
    "name": "Ab Dick",
    "lat": 30.418579,
    "lon": -91.076852,
    "kind": "RCRAINFO",
    "sector": "UNSPECIFIED UNIVERSE",
    "releases_lbs": null,
    "sources": [
      "FRS"
    ]
  },
  {
    "name": "Abandoned Trailer On Exide Property",
    "lat": 30.597092,
    "lon": -91.166387,
    "kind": "RCRAINFO",
    "sector": "OTHER HAZARDOUS WASTE ACTIVITIES",
    "releases_lbs": null,
    "sources": [
      "FRS"
    ]
  },
  {
    "name": "Abb Svc Co Baton Rouge Facility",
    "lat": 30.39572,
    "lon": -91.05643,
    "kind": "RCRAINFO",
    "sector": "UNSPECIFIED UNIVERSE",
    "releases_lbs": null,
    "sources": [
      "FRS"
    ]
  },
  {
    "name": "Abc Auto Auction Llc",
    "lat": 30.5443,
    "lon": -91.13748,
    "kind": "NPDES",
    "sector": "ICIS-NPDES NON-MAJOR, STORM WATER CONSTRUCTION",
    "releases_lbs": null,
    "sources": [
      "FRS"
    ]
  },
  {
    "name": "Abc Auto Salvage",
    "lat": 30.484224,
    "lon": -90.937684,
    "kind": "RCRAINFO",
    "sector": "UNSPECIFIED UNIVERSE",
    "releases_lbs": null,
    "sources": [
      "FRS"
    ]
  },
  {
    "name": "Abc Early Childhood Learning & Development Center Llc",
    "lat": 30.380056,
    "lon": -91.24,
    "kind": "NPDES",
    "sector": "ICIS-NPDES NON-MAJOR",
    "releases_lbs": null,
    "sources": [
      "FRS"
    ]
  },
  {
    "name": "Abeco",
    "lat": 30.46704,
    "lon": -91.12987,
    "kind": "RCRAINFO",
    "sector": "VSQG",
    "releases_lbs": null,
    "sources": [
      "FRS"
    ]
  },
  {
    "name": "Abercrombie & Fitch",
    "lat": 30.392265,
    "lon": -91.090405,
    "kind": "RCRAINFO",
    "sector": "VSQG",
    "releases_lbs": null,
    "sources": [
      "FRS"
    ]
  },
  {
    "name": "Abf Freight Systems Inc",
    "lat": 30.451779,
    "lon": -91.276557,
    "kind": "ICIS",
    "sector": "ENFORCEMENT/COMPLIANCE ACTIVITY",
    "releases_lbs": null,
    "sources": [
      "FRS"
    ]
  },
  {
    "name": "Able Moving & Storage",
    "lat": 30.353133,
    "lon": -91.000633,
    "kind": "RCRAINFO",
    "sector": "UNSPECIFIED UNIVERSE",
    "releases_lbs": null,
    "sources": [
      "FRS"
    ]
  },
  {
    "name": "Ac Plastiques Usa Llc",
    "lat": 30.47262,
    "lon": -91.10062,
    "kind": "RCRAINFO",
    "sector": "UNSPECIFIED UNIVERSE",
    "releases_lbs": null,
    "sources": [
      "FRS"
    ]
  },
  {
    "name": "Academy Sports 222",
    "lat": 30.469452,
    "lon": -90.922831,
    "kind": "RCRAINFO",
    "sector": "VSQG",
    "releases_lbs": null,
    "sources": [
      "FRS"
    ]
  },
  {
    "name": "Academy Sports 51",
    "lat": 30.39031,
    "lon": -91.06377,
    "kind": "RCRAINFO",
    "sector": "VSQG",
    "releases_lbs": null,
    "sources": [
      "FRS"
    ]
  },
  {
    "name": "Academy Sports 56",
    "lat": 30.45754,
    "lon": -91.09926,
    "kind": "RCRAINFO",
    "sector": "VSQG",
    "releases_lbs": null,
    "sources": [
      "FRS"
    ]
  },
  {
    "name": "Acadian Ambulance",
    "lat": 30.450693,
    "lon": -91.143633,
    "kind": "RCRAINFO",
    "sector": "SQG",
    "releases_lbs": null,
    "sources": [
      "FRS"
    ]
  },
  {
    "name": "Acadian Ambulance",
    "lat": 30.45236,
    "lon": -91.15671,
    "kind": "RCRAINFO",
    "sector": "UNSPECIFIED UNIVERSE",
    "releases_lbs": null,
    "sources": [
      "FRS"
    ]
  },
  {
    "name": "Acadian Ambulance Service Inc",
    "lat": 30.455891,
    "lon": -91.098503,
    "kind": "RCRAINFO",
    "sector": "VSQG",
    "releases_lbs": null,
    "sources": [
      "FRS"
    ]
  },
  {
    "name": "Acadian Ambulance Svc Inc",
    "lat": 30.47204,
    "lon": -91.07354,
    "kind": "RCRAINFO",
    "sector": "VSQG",
    "releases_lbs": null,
    "sources": [
      "FRS"
    ]
  },
  {
    "name": "Acadian Chiropractic Clinic",
    "lat": 30.44272,
    "lon": -91.09282,
    "kind": "RCRAINFO",
    "sector": "VSQG",
    "releases_lbs": null,
    "sources": [
      "FRS"
    ]
  },
  {
    "name": "Acadian Clinic",
    "lat": 30.451879,
    "lon": -91.15476,
    "kind": "RCRAINFO",
    "sector": "OTHER HAZARDOUS WASTE ACTIVITIES",
    "releases_lbs": null,
    "sources": [
      "FRS"
    ]
  },
  {
    "name": "Acadian Commercial Contractors Llc - Pelican Point Commerce Ctr",
    "lat": 30.1875,
    "lon": -90.915,
    "kind": "NPDES",
    "sector": "ICIS-NPDES NON-MAJOR",
    "releases_lbs": null,
    "sources": [
      "FRS"
    ]
  },
  {
    "name": "Acadian Gas Pipeline",
    "lat": 30.199075,
    "lon": -91.019528,
    "kind": "RCRAINFO",
    "sector": "VSQG",
    "releases_lbs": null,
    "sources": [
      "FRS"
    ]
  },
  {
    "name": "Acadian Gas Pipeline Darrow Separator",
    "lat": 30.118929,
    "lon": -90.990746,
    "kind": "RCRAINFO",
    "sector": "UNSPECIFIED UNIVERSE",
    "releases_lbs": null,
    "sources": [
      "FRS"
    ]
  },
  {
    "name": "Acadian Gas Pipeline System",
    "lat": 30.568981,
    "lon": -91.397985,
    "kind": "BR, RCRAINFO",
    "sector": "HAZARDOUS WASTE BIENNIAL REPORTER, UNSPECIFIED UNIVERSE",
    "releases_lbs": null,
    "sources": [
      "FRS"
    ]
  },
  {
    "name": "Acadian Gas Pipeline System - West Baton Rouge Parish",
    "lat": 30.422025,
    "lon": -91.191785,
    "kind": "BR, RCRAINFO",
    "sector": "HAZARDOUS WASTE BIENNIAL REPORTER, VSQG",
    "releases_lbs": null,
    "sources": [
      "FRS"
    ]
  },
  {
    "name": "Acadian Interstate Mobil",
    "lat": 30.42114,
    "lon": -91.15285,
    "kind": "RCRAINFO",
    "sector": "OTHER HAZARDOUS WASTE ACTIVITIES",
    "releases_lbs": null,
    "sources": [
      "FRS"
    ]
  },
  {
    "name": "Acadian Mhp",
    "lat": 30.5127,
    "lon": -91.29608,
    "kind": "NPDES",
    "sector": "ICIS-NPDES NON-MAJOR",
    "releases_lbs": null,
    "sources": [
      "FRS"
    ]
  },
  {
    "name": "Acadian Plaza",
    "lat": 30.2978,
    "lon": -90.92166,
    "kind": "NPDES",
    "sector": "ICIS-NPDES NON-MAJOR",
    "releases_lbs": null,
    "sources": [
      "FRS"
    ]
  },
  {
    "name": "Acadian Sign, Inc.",
    "lat": 30.48465,
    "lon": -90.914624,
    "kind": "NPDES",
    "sector": "ICIS-NPDES NON-MAJOR, ICIS-NPDES UNPERMITTED",
    "releases_lbs": null,
    "sources": [
      "FRS"
    ]
  },
  {
    "name": "Acadian, Port Allen",
    "lat": 30.47703,
    "lon": -91.232035,
    "kind": "RCRAINFO",
    "sector": "UNSPECIFIED UNIVERSE",
    "releases_lbs": null,
    "sources": [
      "FRS"
    ]
  },
  {
    "name": "Acadiana Constructors Inc - Arbor Grove Development",
    "lat": 30.57138,
    "lon": -91.04732,
    "kind": "NPDES",
    "sector": "ICIS-NPDES NON-MAJOR, STORM WATER CONSTRUCTION",
    "releases_lbs": null,
    "sources": [
      "FRS"
    ]
  },
  {
    "name": "Acadians Of Ascension",
    "lat": 30.26189,
    "lon": -90.9618,
    "kind": "NPDES",
    "sector": "ICIS-NPDES NON-MAJOR, STORM WATER CONSTRUCTION",
    "releases_lbs": null,
    "sources": [
      "FRS"
    ]
  },
  {
    "name": "Acbl Transportation Services Llc",
    "lat": 30.513735,
    "lon": -91.214044,
    "kind": "NPDES",
    "sector": "ICIS-NPDES NON-MAJOR",
    "releases_lbs": null,
    "sources": [
      "FRS"
    ]
  },
  {
    "name": "Accent Printing Co",
    "lat": 30.46809,
    "lon": -91.09992,
    "kind": "RCRAINFO",
    "sector": "VSQG",
    "releases_lbs": null,
    "sources": [
      "FRS"
    ]
  },
  {
    "name": "Accents On Hair",
    "lat": 30.26944,
    "lon": -90.90397,
    "kind": "NPDES",
    "sector": "ICIS-NPDES UNPERMITTED",
    "releases_lbs": null,
    "sources": [
      "FRS"
    ]
  },
  {
    "name": "Accoustical Specialties",
    "lat": 30.4713,
    "lon": -91.04223,
    "kind": "RCRAINFO",
    "sector": "VSQG",
    "releases_lbs": null,
    "sources": [
      "FRS"
    ]
  },
  {
    "name": "Accu Graphics Inc",
    "lat": 30.47394,
    "lon": -91.08523,
    "kind": "RCRAINFO",
    "sector": "UNSPECIFIED UNIVERSE",
    "releases_lbs": null,
    "sources": [
      "FRS"
    ]
  },
  {
    "name": "Accu-Builders Inc.",
    "lat": 30.51983,
    "lon": -90.98847,
    "kind": "NPDES",
    "sector": "ICIS-NPDES NON-MAJOR, STORM WATER CONSTRUCTION",
    "releases_lbs": null,
    "sources": [
      "FRS"
    ]
  },
  {
    "name": "Accurate Components",
    "lat": 30.482723,
    "lon": -90.921146,
    "kind": "NPDES",
    "sector": "ICIS-NPDES NON-MAJOR",
    "releases_lbs": null,
    "sources": [
      "FRS"
    ]
  },
  {
    "name": "Accurate Rubber Stamp",
    "lat": 30.483352,
    "lon": -91.168962,
    "kind": "RCRAINFO",
    "sector": "VSQG",
    "releases_lbs": null,
    "sources": [
      "FRS"
    ]
  },
  {
    "name": "Ace Armature Works Inc",
    "lat": 30.46729,
    "lon": -91.16448,
    "kind": "RCRAINFO",
    "sector": "VSQG",
    "releases_lbs": null,
    "sources": [
      "FRS"
    ]
  },
  {
    "name": "Ace Auto Rpr",
    "lat": 30.38388,
    "lon": -91.04405,
    "kind": "RCRAINFO",
    "sector": "UNSPECIFIED UNIVERSE",
    "releases_lbs": null,
    "sources": [
      "FRS"
    ]
  },
  {
    "name": "Ace Body Shop",
    "lat": 30.52355,
    "lon": -91.06501,
    "kind": "RCRAINFO",
    "sector": "VSQG",
    "releases_lbs": null,
    "sources": [
      "FRS"
    ]
  },
  {
    "name": "Ace Cleaners",
    "lat": 30.47022,
    "lon": -91.16817,
    "kind": "RCRAINFO",
    "sector": "VSQG",
    "releases_lbs": null,
    "sources": [
      "FRS"
    ]
  },
  {
    "name": "Ace Enterprises, Inc",
    "lat": 30.36665,
    "lon": -90.95765,
    "kind": "NPDES",
    "sector": "ICIS-NPDES UNPERMITTED",
    "releases_lbs": null,
    "sources": [
      "FRS"
    ]
  },
  {
    "name": "Ace Holdings, Llc - Perkins Commercial Park",
    "lat": 30.354304,
    "lon": -91.04538,
    "kind": "NPDES",
    "sector": "ICIS-NPDES NON-MAJOR",
    "releases_lbs": null,
    "sources": [
      "FRS"
    ]
  },
  {
    "name": "Ace Logistics Inc - Larry Smith Properti",
    "lat": 30.51379,
    "lon": -91.18062,
    "kind": "AIR, AIRS/AFS, NPDES",
    "sector": "AIR MINOR, ICIS-NPDES NON-MAJOR, STORM WATER INDUSTRIAL",
    "releases_lbs": null,
    "sources": [
      "FRS"
    ]
  },
  {
    "name": "Achord'S Mobile Home Transport Llc - Unauthorized Burn Site",
    "lat": 30.588323,
    "lon": -90.881685,
    "kind": "AIR",
    "sector": "AIR EMISSIONS CLASSIFICATION UNKNOWN",
    "releases_lbs": null,
    "sources": [
      "FRS"
    ]
  },
  {
    "name": "Acme Brick #1 Production Facility",
    "lat": 30.58639,
    "lon": -91.21417,
    "kind": "AIRS/AFS, EIS",
    "sector": "AIR EMISSIONS CLASSIFICATION UNKNOWN, AIR MINOR",
    "releases_lbs": null,
    "sources": [
      "FRS"
    ]
  },
  {
    "name": "Acme Truck Line",
    "lat": 30.46357,
    "lon": -91.03547,
    "kind": "RCRAINFO",
    "sector": "VSQG",
    "releases_lbs": null,
    "sources": [
      "FRS"
    ]
  },
  {
    "name": "Acosta'S Dry Cleaning",
    "lat": 30.44538,
    "lon": -91.1658,
    "kind": "AIRS/AFS",
    "sector": "AIR MINOR",
    "releases_lbs": null,
    "sources": [
      "FRS"
    ]
  },
  {
    "name": "Acs Montessori School",
    "lat": 30.36123,
    "lon": -91.00531,
    "kind": "NPDES",
    "sector": "ICIS-NPDES NON-MAJOR",
    "releases_lbs": null,
    "sources": [
      "FRS"
    ]
  },
  {
    "name": "Action Marine",
    "lat": 30.29198,
    "lon": -90.86188,
    "kind": "RCRAINFO",
    "sector": "VSQG",
    "releases_lbs": null,
    "sources": [
      "FRS"
    ]
  },
  {
    "name": "Action Resources Inc",
    "lat": 30.24765,
    "lon": -91.07297,
    "kind": "RCRAINFO",
    "sector": "TRANSPORTER, VSQG",
    "releases_lbs": null,
    "sources": [
      "FRS"
    ]
  },
  {
    "name": "Action Transmissions",
    "lat": 30.59782,
    "lon": -91.07429,
    "kind": "RCRAINFO",
    "sector": "VSQG",
    "releases_lbs": null,
    "sources": [
      "FRS"
    ]
  },
  {
    "name": "Action Waste Oil",
    "lat": 30.545849,
    "lon": -90.869062,
    "kind": "ICIS, NPDES, RCRAINFO",
    "sector": "FORMAL ENFORCEMENT ACTION, ICIS-NPDES UNPERMITTED, UNSPECIFIED UNIVERSE",
    "releases_lbs": null,
    "sources": [
      "FRS"
    ]
  },
  {
    "name": "Acumen Real Estate",
    "lat": 30.35799,
    "lon": -91.0492,
    "kind": "NPDES, RCRAINFO",
    "sector": "ICIS-NPDES NON-MAJOR, VSQG",
    "releases_lbs": null,
    "sources": [
      "FRS"
    ]
  },
  {
    "name": "Acura Of Baton Rouge",
    "lat": 30.46115,
    "lon": -91.04254,
    "kind": "RCRAINFO",
    "sector": "UNSPECIFIED UNIVERSE",
    "releases_lbs": null,
    "sources": [
      "FRS"
    ]
  },
  {
    "name": "Acuren Inspection",
    "lat": 30.208747,
    "lon": -90.93966,
    "kind": "RCRAINFO",
    "sector": "VSQG",
    "releases_lbs": null,
    "sources": [
      "FRS"
    ]
  },
  {
    "name": "Acuren Inspection Inc",
    "lat": 30.452105,
    "lon": -91.101968,
    "kind": "RCRAINFO",
    "sector": "SQG",
    "releases_lbs": null,
    "sources": [
      "FRS"
    ]
  },
  {
    "name": "Adam Mccarty Properties Llc- State Farm Office Complex",
    "lat": 30.250556,
    "lon": -90.924578,
    "kind": "NPDES",
    "sector": "ICIS-NPDES NON-MAJOR",
    "releases_lbs": null,
    "sources": [
      "FRS"
    ]
  },
  {
    "name": "Adams Collision",
    "lat": 30.37059,
    "lon": -91.02964,
    "kind": "RCRAINFO",
    "sector": "VSQG",
    "releases_lbs": null,
    "sources": [
      "FRS"
    ]
  },
  {
    "name": "Adams Collison - Boyd Adams",
    "lat": 30.3787,
    "lon": -91.09686,
    "kind": "NPDES",
    "sector": "ICIS-NPDES UNPERMITTED",
    "releases_lbs": null,
    "sources": [
      "FRS"
    ]
  },
  {
    "name": "Adams Grocery And Deli (Gavin'S Food)",
    "lat": 30.43201,
    "lon": -91.04394,
    "kind": "AIR, AIRS/AFS, ICIS",
    "sector": "AIR EMISSIONS CLASSIFICATION UNKNOWN, AIR MINOR, ENFORCEMENT/COMPLIANCE ACTIVITY",
    "releases_lbs": null,
    "sources": [
      "FRS"
    ]
  },
  {
    "name": "Adams Repair Works",
    "lat": 30.45348,
    "lon": -91.15269,
    "kind": "RCRAINFO",
    "sector": "VSQG",
    "releases_lbs": null,
    "sources": [
      "FRS"
    ]
  },
  {
    "name": "Adams Rolling Mechanic",
    "lat": 30.46773,
    "lon": -91.00252,
    "kind": "RCRAINFO",
    "sector": "UNSPECIFIED UNIVERSE",
    "releases_lbs": null,
    "sources": [
      "FRS"
    ]
  },
  {
    "name": "Adams Rolling Mechanic Svc",
    "lat": 30.48533,
    "lon": -91.11786,
    "kind": "RCRAINFO",
    "sector": "OTHER HAZARDOUS WASTE ACTIVITIES",
    "releases_lbs": null,
    "sources": [
      "FRS"
    ]
  },
  {
    "name": "Addis",
    "lat": 30.360779,
    "lon": -91.269841,
    "kind": "EIS",
    "sector": "AIR EMISSIONS CLASSIFICATION UNKNOWN",
    "releases_lbs": null,
    "sources": [
      "FRS"
    ]
  },
  {
    "name": "Addis Carbon Black Plant",
    "lat": 30.330179,
    "lon": -91.279423,
    "kind": "CEDRI",
    "sector": "COMPLIANCE AND EMISSIONS REPORTING",
    "releases_lbs": null,
    "sources": [
      "FRS"
    ]
  },
  {
    "name": "Addis Enterprise",
    "lat": 30.3543,
    "lon": -91.25941,
    "kind": "RCRAINFO",
    "sector": "VSQG",
    "releases_lbs": null,
    "sources": [
      "FRS"
    ]
  },
  {
    "name": "Addis Plant B",
    "lat": 30.345556,
    "lon": -91.257861,
    "kind": "NPDES",
    "sector": "ICIS-NPDES NON-MAJOR, STORM WATER INDUSTRIAL",
    "releases_lbs": null,
    "sources": [
      "FRS"
    ]
  },
  {
    "name": "Addis Service Station",
    "lat": 30.35479,
    "lon": -91.2655,
    "kind": "RCRAINFO",
    "sector": "VSQG",
    "releases_lbs": null,
    "sources": [
      "FRS"
    ]
  },
  {
    "name": "Addis Wastewater Treatment Plant",
    "lat": 30.351111,
    "lon": -91.249866,
    "kind": "NPDES",
    "sector": "ICIS-NPDES NON-MAJOR, POTW",
    "releases_lbs": null,
    "sources": [
      "FRS"
    ]
  },
  {
    "name": "Adell Compounding Inc",
    "lat": 30.48703,
    "lon": -90.92627,
    "kind": "chemical",
    "sector": "AIR MINOR, HAZARDOUS WASTE BIENNIAL REPORTER, ICIS-NPDES NON-MAJOR",
    "releases_lbs": null,
    "sources": [
      "FRS",
      "OSM"
    ]
  },
  {
    "name": "Adell Plastics, Inc.",
    "lat": 30.48312,
    "lon": -90.92682,
    "kind": "ICIS",
    "sector": "FORMAL ENFORCEMENT ACTION",
    "releases_lbs": null,
    "sources": [
      "FRS"
    ]
  },
  {
    "name": "Adept Mobile Auto Svc",
    "lat": 30.4726,
    "lon": -91.04034,
    "kind": "RCRAINFO",
    "sector": "UNSPECIFIED UNIVERSE",
    "releases_lbs": null,
    "sources": [
      "FRS"
    ]
  },
  {
    "name": "Adsorbent Solutions Llc - Adsorbent Sol",
    "lat": 30.25449,
    "lon": -91.07419,
    "kind": "AIR, AIRS/AFS, ICIS",
    "sector": "AIR MINOR, ENFORCEMENT/COMPLIANCE ACTIVITY, ICIS-NPDES NON-MAJOR",
    "releases_lbs": null,
    "sources": [
      "FRS"
    ]
  },
  {
    "name": "Adt Security Systems",
    "lat": 30.38758,
    "lon": -91.05381,
    "kind": "RCRAINFO",
    "sector": "VSQG",
    "releases_lbs": null,
    "sources": [
      "FRS"
    ]
  },
  {
    "name": "Advance Auto Parts #5006",
    "lat": 30.461585,
    "lon": -90.957126,
    "kind": "RCRAINFO",
    "sector": "VSQG",
    "releases_lbs": null,
    "sources": [
      "FRS"
    ]
  },
  {
    "name": "Advance Auto Parts #8004",
    "lat": 30.460212,
    "lon": -91.046381,
    "kind": "RCRAINFO",
    "sector": "VSQG",
    "releases_lbs": null,
    "sources": [
      "FRS"
    ]
  },
  {
    "name": "Advanced Geoservices Corp - Solid Waste Landfill Closure",
    "lat": 30.58387,
    "lon": -91.24427,
    "kind": "NPDES",
    "sector": "ICIS-NPDES NON-MAJOR, STORM WATER CONSTRUCTION",
    "releases_lbs": null,
    "sources": [
      "FRS"
    ]
  },
  {
    "name": "Advanced Office Sys",
    "lat": 30.38724,
    "lon": -91.05369,
    "kind": "RCRAINFO",
    "sector": "UNSPECIFIED UNIVERSE",
    "releases_lbs": null,
    "sources": [
      "FRS"
    ]
  },
  {
    "name": "Advanced Transmission",
    "lat": 30.528804,
    "lon": -91.14283,
    "kind": "RCRAINFO",
    "sector": "UNSPECIFIED UNIVERSE",
    "releases_lbs": null,
    "sources": [
      "FRS"
    ]
  },
  {
    "name": "Adventist Academy",
    "lat": 30.413217,
    "lon": -91.015181,
    "kind": "SEMS",
    "sector": "SUPERFUND (NON-NPL)",
    "releases_lbs": null,
    "sources": [
      "FRS"
    ]
  },
  {
    "name": "Aecom Inc",
    "lat": 30.45909,
    "lon": -91.11582,
    "kind": "RCRAINFO",
    "sector": "SQG",
    "releases_lbs": null,
    "sources": [
      "FRS"
    ]
  },
  {
    "name": "Aegis Mortgage Corp",
    "lat": 30.38525,
    "lon": -91.06927,
    "kind": "NPDES",
    "sector": "ICIS-NPDES UNPERMITTED",
    "releases_lbs": null,
    "sources": [
      "FRS"
    ]
  },
  {
    "name": "Aep Elmwood Llc - Baton Rouge Facility",
    "lat": 30.42365,
    "lon": -91.19264,
    "kind": "AIR, AIRS/AFS",
    "sector": "AIR MINOR",
    "releases_lbs": null,
    "sources": [
      "FRS"
    ]
  },
  {
    "name": "Aerial Access Equipment",
    "lat": 30.370749,
    "lon": -91.029547,
    "kind": "NPDES",
    "sector": "ICIS-NPDES NON-MAJOR",
    "releases_lbs": null,
    "sources": [
      "FRS"
    ]
  },
  {
    "name": "Aerial Access Equipment Inc.",
    "lat": 30.3918,
    "lon": -91.05321,
    "kind": "NPDES",
    "sector": "ICIS-NPDES UNPERMITTED",
    "releases_lbs": null,
    "sources": [
      "FRS"
    ]
  },
  {
    "name": "Affordable Discount Tractors",
    "lat": 30.41568,
    "lon": -91.0694,
    "kind": "ICIS",
    "sector": "ENFORCEMENT/COMPLIANCE ACTIVITY",
    "releases_lbs": null,
    "sources": [
      "FRS"
    ]
  },
  {
    "name": "Affordable Transmissions",
    "lat": 30.509269,
    "lon": -91.144068,
    "kind": "RCRAINFO",
    "sector": "VSQG",
    "releases_lbs": null,
    "sources": [
      "FRS"
    ]
  },
  {
    "name": "Afs Resources Llc",
    "lat": 30.45512,
    "lon": -91.008312,
    "kind": "NPDES",
    "sector": "ICIS-NPDES NON-MAJOR",
    "releases_lbs": null,
    "sources": [
      "FRS"
    ]
  },
  {
    "name": "Agape Baptist Church",
    "lat": 30.437437,
    "lon": -90.859709,
    "kind": "NPDES",
    "sector": "ICIS-NPDES NON-MAJOR",
    "releases_lbs": null,
    "sources": [
      "FRS"
    ]
  },
  {
    "name": "Agc Flat Glass North America Inc.",
    "lat": 30.43746,
    "lon": -91.17374,
    "kind": "NPDES",
    "sector": "ICIS-NPDES NON-MAJOR, STORM WATER INDUSTRIAL",
    "releases_lbs": null,
    "sources": [
      "FRS"
    ]
  },
  {
    "name": "Agco Automotive",
    "lat": 30.411992,
    "lon": -91.055592,
    "kind": "RCRAINFO",
    "sector": "VSQG",
    "releases_lbs": null,
    "sources": [
      "FRS"
    ]
  },
  {
    "name": "Agco Automotive",
    "lat": 30.48967,
    "lon": -91.1405,
    "kind": "RCRAINFO",
    "sector": "VSQG",
    "releases_lbs": null,
    "sources": [
      "FRS"
    ]
  },
  {
    "name": "Aggregates Transp Of La Inc",
    "lat": 30.466793,
    "lon": -90.949607,
    "kind": "RCRAINFO",
    "sector": "UNSPECIFIED UNIVERSE",
    "releases_lbs": null,
    "sources": [
      "FRS"
    ]
  },
  {
    "name": "Aggreko Inc",
    "lat": 30.38652,
    "lon": -91.05337,
    "kind": "RCRAINFO",
    "sector": "UNSPECIFIED UNIVERSE",
    "releases_lbs": null,
    "sources": [
      "FRS"
    ]
  },
  {
    "name": "Agribusiness Marketers & Inves",
    "lat": 30.47061,
    "lon": -91.13949,
    "kind": "ICIS",
    "sector": "FORMAL ENFORCEMENT ACTION",
    "releases_lbs": null,
    "sources": [
      "FRS"
    ]
  },
  {
    "name": "Agway Systems Inc",
    "lat": 30.55633,
    "lon": -91.1807,
    "kind": "distributor",
    "sector": "ICIS-NPDES NON-MAJOR, STORM WATER INDUSTRIAL",
    "releases_lbs": null,
    "sources": [
      "FRS",
      "OSM"
    ]
  },
  {
    "name": "Agway Systems Inc",
    "lat": 30.565788,
    "lon": -91.176577,
    "kind": "NPDES",
    "sector": "ICIS-NPDES NON-MAJOR",
    "releases_lbs": null,
    "sources": [
      "FRS"
    ]
  },
  {
    "name": "Agway Systems Inc",
    "lat": 30.558521,
    "lon": -91.216776,
    "kind": "NPDES",
    "sector": "ICIS-NPDES NON-MAJOR, STORM WATER INDUSTRIAL",
    "releases_lbs": null,
    "sources": [
      "FRS"
    ]
  },
  {
    "name": "Ahb Group Llc - Drums & Containers Inc.",
    "lat": 30.274853,
    "lon": -91.106708,
    "kind": "NPDES",
    "sector": "ICIS-NPDES NON-MAJOR",
    "releases_lbs": null,
    "sources": [
      "FRS"
    ]
  },
  {
    "name": "Ahlstrom Mach Inc",
    "lat": 30.46969,
    "lon": -91.17315,
    "kind": "RCRAINFO",
    "sector": "UNSPECIFIED UNIVERSE",
    "releases_lbs": null,
    "sources": [
      "FRS"
    ]
  },
  {
    "name": "Ahlstrom Pumps Equipment Inc",
    "lat": 30.38801,
    "lon": -91.05561,
    "kind": "RCRAINFO",
    "sector": "VSQG",
    "releases_lbs": null,
    "sources": [
      "FRS"
    ]
  },
  {
    "name": "Ai Hydraulics",
    "lat": 30.226323,
    "lon": -90.873986,
    "kind": "RCRAINFO",
    "sector": "VSQG",
    "releases_lbs": null,
    "sources": [
      "FRS"
    ]
  },
  {
    "name": "Aim Medical",
    "lat": 30.44269,
    "lon": -91.09364,
    "kind": "RCRAINFO",
    "sector": "UNSPECIFIED UNIVERSE",
    "releases_lbs": null,
    "sources": [
      "FRS"
    ]
  },
  {
    "name": "Air & Process Systems Inc",
    "lat": 30.4725,
    "lon": -91.05519,
    "kind": "RCRAINFO",
    "sector": "VSQG",
    "releases_lbs": null,
    "sources": [
      "FRS"
    ]
  },
  {
    "name": "Air Cure Technologie",
    "lat": 30.24515,
    "lon": -91.06321,
    "kind": "AIR, AIRS/AFS, NPDES",
    "sector": "AIR EMISSIONS CLASSIFICATION UNKNOWN, AIR MINOR, ICIS-NPDES NON-MAJOR",
    "releases_lbs": null,
    "sources": [
      "FRS"
    ]
  },
  {
    "name": "Air Liquide America Corp",
    "lat": 30.334306,
    "lon": -91.257501,
    "kind": "NPDES, RCRAINFO",
    "sector": "ICIS-NPDES NON-MAJOR, STORM WATER INDUSTRIAL, VSQG",
    "releases_lbs": null,
    "sources": [
      "FRS"
    ]
  },
  {
    "name": "Air Liquide America Corp",
    "lat": 30.21023,
    "lon": -90.99085,
    "kind": "AIR, AIRS/AFS, CEDRI",
    "sector": "AIR MAJOR, COMPLIANCE AND EMISSIONS REPORTING, ICIS-NPDES NON-MAJOR",
    "releases_lbs": null,
    "sources": [
      "FRS"
    ]
  },
  {
    "name": "Air Liquide America Specialty Gases Llc",
    "lat": 30.50368,
    "lon": -91.32043,
    "kind": "NPDES, SEMS",
    "sector": "ICIS-NPDES NON-MAJOR, SUPERFUND (NON-NPL)",
    "releases_lbs": null,
    "sources": [
      "FRS"
    ]
  },
  {
    "name": "Air Liquide Large Industries U.S. L. P. - Addis Asu",
    "lat": 30.324444,
    "lon": -91.250833,
    "kind": "NPDES",
    "sector": "ICIS-NPDES NON-MAJOR",
    "releases_lbs": null,
    "sources": [
      "FRS"
    ]
  },
  {
    "name": "Air Liquide Large Industries Us Lp - Evergreen Air Separation Plant",
    "lat": 30.257707,
    "lon": -91.193523,
    "kind": "AIR, AIRS/AFS, RCRAINFO",
    "sector": "AIR EMISSIONS CLASSIFICATION UNKNOWN, AIR MINOR, UNSPECIFIED UNIVERSE",
    "releases_lbs": null,
    "sources": [
      "FRS"
    ]
  },
  {
    "name": "Air Liquide Large Industries Us Lp - Geismar Facility",
    "lat": 30.21023,
    "lon": -90.99085,
    "kind": "E-GGRT, EIS, NPDES",
    "sector": "AIR EMISSIONS CLASSIFICATION UNKNOWN, GREENHOUSE GAS REPORTER, ICIS-NPDES NON-MAJOR",
    "releases_lbs": null,
    "sources": [
      "FRS"
    ]
  },
  {
    "name": "Air Liquide Large Industries Us Lp - Geismar Utility Services",
    "lat": 30.216085,
    "lon": -91.002699,
    "kind": "CEDRI, E-GGRT, EIS",
    "sector": "AIR EMISSIONS CLASSIFICATION UNKNOWN, COMPLIANCE AND EMISSIONS REPORTING, GREENHOUSE GAS REPORTER",
    "releases_lbs": null,
    "sources": [
      "FRS"
    ]
  },
  {
    "name": "Air Liquide Large Industries Us Lp - Geismar Utility Services",
    "lat": 30.195474,
    "lon": -91.020101,
    "kind": "AIR, AIRS/AFS, BR",
    "sector": "AIR MAJOR, FORMAL ENFORCEMENT ACTION, HAZARDOUS WASTE BIENNIAL REPORTER",
    "releases_lbs": null,
    "sources": [
      "FRS"
    ]
  },
  {
    "name": "Air Liquide Large Industries Us Lp - Plaquemine Asu Facility",
    "lat": 30.24192,
    "lon": -91.19942,
    "kind": "RMP",
    "sector": "RMP REPORTER",
    "releases_lbs": null,
    "sources": [
      "FRS",
      "RMP"
    ]
  },
  {
    "name": "Air Liquide Large Industries Us, Lp - Port Allen Lma Facility",
    "lat": 30.48973,
    "lon": -91.20773,
    "kind": "NPDES",
    "sector": "ICIS-NPDES NON-MAJOR",
    "releases_lbs": null,
    "sources": [
      "FRS"
    ]
  },
  {
    "name": "Air Products & Chemicals",
    "lat": 30.1120761,
    "lon": -90.8952852,
    "kind": "industrial_gases",
    "sector": null,
    "releases_lbs": null,
    "sources": [
      "OSM"
    ]
  },
  {
    "name": "Air Products & Chemicals Inc - Air Products Reg H2 Pipeline",
    "lat": 30.215,
    "lon": -91.001667,
    "kind": "NPDES",
    "sector": "ICIS-NPDES NON-MAJOR",
    "releases_lbs": null,
    "sources": [
      "FRS"
    ]
  },
  {
    "name": "Air Products & Chemicals Inc - Baton Rouge H2 Plant",
    "lat": 30.493536,
    "lon": -91.187226,
    "kind": "RMP",
    "sector": "RMP REPORTER",
    "releases_lbs": null,
    "sources": [
      "FRS",
      "RMP"
    ]
  },
  {
    "name": "Air Products & Chemicals Inc - Convent Facility-Steam Methane Reformer Unit",
    "lat": 30.119287,
    "lon": -90.869361,
    "kind": "industrial_gases",
    "sector": "AIR MINOR, ICIS-NPDES NON-MAJOR, TRI REPORTER",
    "releases_lbs": null,
    "sources": [
      "FRS",
      "OSM"
    ]
  },
  {
    "name": "Air Products & Chemicals Inc - Convent Hydrogen Plant",
    "lat": 30.108889,
    "lon": -90.885556,
    "kind": "RMP",
    "sector": "RMP REPORTER",
    "releases_lbs": null,
    "sources": [
      "FRS",
      "RMP"
    ]
  },
  {
    "name": "Air Products & Chemicals Inc - Syngas Plant",
    "lat": 30.18379,
    "lon": -90.98836,
    "kind": "AIR, AIRS/AFS, E-GGRT",
    "sector": "AIR EMISSIONS CLASSIFICATION UNKNOWN, AIR MAJOR, AIR MINOR",
    "releases_lbs": null,
    "sources": [
      "FRS"
    ]
  },
  {
    "name": "Air Products & Chemicals, Inc. - Steam Methane Reformer (Smr) Facility",
    "lat": 30.107778,
    "lon": -90.885833,
    "kind": "NPDES",
    "sector": "ICIS-NPDES NON-MAJOR, STORM WATER CONSTRUCTION",
    "releases_lbs": null,
    "sources": [
      "FRS"
    ]
  },
  {
    "name": "Air Products - Geismar 3 Hyco",
    "lat": 30.197427,
    "lon": -91.018065,
    "kind": "RMP",
    "sector": "RMP REPORTER",
    "releases_lbs": null,
    "sources": [
      "FRS",
      "RMP"
    ]
  },
  {
    "name": "Air Products And Chemicals Inc - Geismar 3 Hyco Smr Plant",
    "lat": 30.19654,
    "lon": -91.01753,
    "kind": "AIR, NPDES",
    "sector": "AIR MINOR, ICIS-NPDES NON-MAJOR",
    "releases_lbs": null,
    "sources": [
      "FRS"
    ]
  },
  {
    "name": "Air Products And Chemicals, Inc. - Br Smr",
    "lat": 30.488192,
    "lon": -91.164097,
    "kind": "E-GGRT",
    "sector": "GREENHOUSE GAS REPORTER",
    "releases_lbs": null,
    "sources": [
      "FRS"
    ]
  },
  {
    "name": "Air Products Blue Energy, Llc - Louisiana Clean Energy Complex",
    "lat": 30.140278,
    "lon": -90.904167,
    "kind": "NPDES",
    "sector": "ICIS-NPDES NON-MAJOR, STORM WATER CONSTRUCTION",
    "releases_lbs": null,
    "sources": [
      "FRS"
    ]
  },
  {
    "name": "Air Products Chemicals Inc",
    "lat": 30.210265,
    "lon": -90.988585,
    "kind": "AIR, AIRS/AFS, BR",
    "sector": "AIR EMISSIONS CLASSIFICATION UNKNOWN, AIR MAJOR, AIR MINOR",
    "releases_lbs": null,
    "sources": [
      "FRS"
    ]
  },
  {
    "name": "Air Products, Geismar 2 Ssu Plant",
    "lat": 30.204444,
    "lon": -90.992389,
    "kind": "RMP",
    "sector": "RMP REPORTER",
    "releases_lbs": null,
    "sources": [
      "FRS",
      "RMP"
    ]
  },
  {
    "name": "Air Svc Of Baton Rouge Inc",
    "lat": 30.47521,
    "lon": -91.0857,
    "kind": "RCRAINFO",
    "sector": "OTHER HAZARDOUS WASTE ACTIVITIES",
    "releases_lbs": null,
    "sources": [
      "FRS"
    ]
  },
  {
    "name": "Airgas Gulf States Inc.",
    "lat": 30.452367,
    "lon": -91.09961,
    "kind": "ICIS",
    "sector": "ENFORCEMENT/COMPLIANCE ACTIVITY, FORMAL ENFORCEMENT ACTION",
    "releases_lbs": null,
    "sources": [
      "FRS"
    ]
  },
  {
    "name": "Airgas Specialty Gases Port Allen",
    "lat": 30.44275,
    "lon": -91.21878,
    "kind": "AIR, AIRS/AFS, BR",
    "sector": "AIR EMISSIONS CLASSIFICATION UNKNOWN, AIR MINOR, ENFORCEMENT/COMPLIANCE ACTIVITY",
    "releases_lbs": null,
    "sources": [
      "FRS"
    ]
  },
  {
    "name": "Airgas Usa Llc",
    "lat": 30.34993,
    "lon": -91.0194,
    "kind": "RCRAINFO",
    "sector": "SQG",
    "releases_lbs": null,
    "sources": [
      "FRS"
    ]
  },
  {
    "name": "Airline Auto Center Llc",
    "lat": 30.45844,
    "lon": -91.09989,
    "kind": "RCRAINFO",
    "sector": "VSQG",
    "releases_lbs": null,
    "sources": [
      "FRS"
    ]
  },
  {
    "name": "Airline Auto Parts",
    "lat": 30.270017,
    "lon": -90.942459,
    "kind": "RCRAINFO",
    "sector": "UNSPECIFIED UNIVERSE",
    "releases_lbs": null,
    "sources": [
      "FRS"
    ]
  },
  {
    "name": "Airline Automotive Inc",
    "lat": 30.47757,
    "lon": -91.11448,
    "kind": "RCRAINFO",
    "sector": "VSQG",
    "releases_lbs": null,
    "sources": [
      "FRS"
    ]
  },
  {
    "name": "Airline Car Wash",
    "lat": 30.41019,
    "lon": -91.063975,
    "kind": "NPDES",
    "sector": "ICIS-NPDES NON-MAJOR",
    "releases_lbs": null,
    "sources": [
      "FRS"
    ]
  },
  {
    "name": "Airline Car Wash",
    "lat": 30.4879,
    "lon": -91.13194,
    "kind": "NPDES",
    "sector": "ICIS-NPDES NON-MAJOR",
    "releases_lbs": null,
    "sources": [
      "FRS"
    ]
  },
  {
    "name": "Airline Car Wash, Inc.",
    "lat": 30.38782,
    "lon": -91.04398,
    "kind": "NPDES",
    "sector": "ICIS-NPDES UNPERMITTED",
    "releases_lbs": null,
    "sources": [
      "FRS"
    ]
  },
  {
    "name": "Airline Centre Parc",
    "lat": 30.25115,
    "lon": -90.92536,
    "kind": "NPDES",
    "sector": "ICIS-NPDES NON-MAJOR",
    "releases_lbs": null,
    "sources": [
      "FRS"
    ]
  },
  {
    "name": "Airline Gas, Inc.",
    "lat": 30.37334,
    "lon": -91.08534,
    "kind": "NPDES",
    "sector": "ICIS-NPDES NON-MAJOR",
    "releases_lbs": null,
    "sources": [
      "FRS"
    ]
  },
  {
    "name": "Airline Industrial Park Homeowners Assoc., Llc",
    "lat": 30.36426,
    "lon": -91.03218,
    "kind": "NPDES",
    "sector": "ICIS-NPDES NON-MAJOR",
    "releases_lbs": null,
    "sources": [
      "FRS"
    ]
  },
  {
    "name": "Airport Exxon",
    "lat": 30.52587,
    "lon": -91.161,
    "kind": "AIR, AIRS/AFS",
    "sector": "AIR EMISSIONS CLASSIFICATION UNKNOWN, AIR MINOR",
    "releases_lbs": null,
    "sources": [
      "FRS"
    ]
  },
  {
    "name": "Airport Fire Fighter Rescue",
    "lat": 30.368526,
    "lon": -91.160384,
    "kind": "NPDES",
    "sector": "ICIS-NPDES NON-MAJOR, STORM WATER CONSTRUCTION",
    "releases_lbs": null,
    "sources": [
      "FRS"
    ]
  },
  {
    "name": "Airtrol",
    "lat": 30.4536,
    "lon": -91.14964,
    "kind": "ICIS",
    "sector": "ENFORCEMENT/COMPLIANCE ACTIVITY",
    "releases_lbs": null,
    "sources": [
      "FRS"
    ]
  },
  {
    "name": "Akm Llc - Nelson Service Co",
    "lat": 30.464174,
    "lon": -90.976625,
    "kind": "AIR, AIRS/AFS, EIS",
    "sector": "AIR EMISSIONS CLASSIFICATION UNKNOWN, AIR MINOR, ICIS-NPDES NON-MAJOR",
    "releases_lbs": null,
    "sources": [
      "FRS"
    ]
  },
  {
    "name": "Akm, Llc - Volks Constructor Division",
    "lat": 30.32115,
    "lon": -90.9763,
    "kind": "NPDES, RCRAINFO",
    "sector": "ICIS-NPDES NON-MAJOR, VSQG",
    "releases_lbs": null,
    "sources": [
      "FRS"
    ]
  },
  {
    "name": "Al Retif Tuneup Svc",
    "lat": 30.24727,
    "lon": -90.921532,
    "kind": "RCRAINFO",
    "sector": "VSQG",
    "releases_lbs": null,
    "sources": [
      "FRS"
    ]
  },
  {
    "name": "Alaska Seaboard Partners, Ltd",
    "lat": 30.41549,
    "lon": -91.05163,
    "kind": "ICIS",
    "sector": "FORMAL ENFORCEMENT ACTION",
    "releases_lbs": null,
    "sources": [
      "FRS"
    ]
  },
  {
    "name": "Albemarle Agricultural Chemicals",
    "lat": 30.44937,
    "lon": -91.18643,
    "kind": "ICIS, RCRAINFO",
    "sector": "ENFORCEMENT/COMPLIANCE ACTIVITY, FORMAL ENFORCEMENT ACTION, UNSPECIFIED UNIVERSE",
    "releases_lbs": null,
    "sources": [
      "FRS"
    ]
  },
  {
    "name": "Albemarle Corporation Process Development Center",
    "lat": 30.493667,
    "lon": -91.17875,
    "kind": "RMP",
    "sector": "RMP REPORTER",
    "releases_lbs": null,
    "sources": [
      "FRS",
      "RMP"
    ]
  },
  {
    "name": "Alberts Auto Repair",
    "lat": 30.550483,
    "lon": -90.881287,
    "kind": "RCRAINFO",
    "sector": "UNSPECIFIED UNIVERSE",
    "releases_lbs": null,
    "sources": [
      "FRS"
    ]
  },
  {
    "name": "Albertson'S #2713",
    "lat": 30.40826,
    "lon": -91.01474,
    "kind": "NPDES, RCRAINFO",
    "sector": "ICIS-NPDES UNPERMITTED, VSQG",
    "releases_lbs": null,
    "sources": [
      "FRS"
    ]
  },
  {
    "name": "Albertsons 2709",
    "lat": 30.42183,
    "lon": -91.14013,
    "kind": "RCRAINFO",
    "sector": "UNSPECIFIED UNIVERSE",
    "releases_lbs": null,
    "sources": [
      "FRS"
    ]
  },
  {
    "name": "Albertsons 2711",
    "lat": 30.39564,
    "lon": -91.11071,
    "kind": "RCRAINFO",
    "sector": "VSQG",
    "releases_lbs": null,
    "sources": [
      "FRS"
    ]
  },
  {
    "name": "Albertsons 2747",
    "lat": 30.35833,
    "lon": -91.00687,
    "kind": "RCRAINFO",
    "sector": "VSQG",
    "releases_lbs": null,
    "sources": [
      "FRS"
    ]
  },
  {
    "name": "Albertsons 2750",
    "lat": 30.44451,
    "lon": -91.13997,
    "kind": "RCRAINFO",
    "sector": "VSQG",
    "releases_lbs": null,
    "sources": [
      "FRS"
    ]
  },
  {
    "name": "Albertsons 2792",
    "lat": 30.35517,
    "lon": -91.10977,
    "kind": "RCRAINFO",
    "sector": "VSQG",
    "releases_lbs": null,
    "sources": [
      "FRS"
    ]
  },
  {
    "name": "Albertsons 4038",
    "lat": 30.481346,
    "lon": -90.956081,
    "kind": "RCRAINFO",
    "sector": "VSQG",
    "releases_lbs": null,
    "sources": [
      "FRS"
    ]
  },
  {
    "name": "Albertsons Express 2712",
    "lat": 30.43374,
    "lon": -91.08229,
    "kind": "RCRAINFO",
    "sector": "VSQG",
    "releases_lbs": null,
    "sources": [
      "FRS"
    ]
  },
  {
    "name": "Albys Market & Deli",
    "lat": 30.470286,
    "lon": -91.05808,
    "kind": "ICIS",
    "sector": "ENFORCEMENT/COMPLIANCE ACTIVITY",
    "releases_lbs": null,
    "sources": [
      "FRS"
    ]
  },
  {
    "name": "Alco Mechanical Specialties",
    "lat": 30.47687,
    "lon": -91.11747,
    "kind": "RCRAINFO",
    "sector": "VSQG",
    "releases_lbs": null,
    "sources": [
      "FRS"
    ]
  },
  {
    "name": "Alesces Svc Cntr",
    "lat": 30.39896,
    "lon": -91.17717,
    "kind": "RCRAINFO",
    "sector": "UNSPECIFIED UNIVERSE",
    "releases_lbs": null,
    "sources": [
      "FRS"
    ]
  },
  {
    "name": "Alex Stirlings Marine",
    "lat": 30.47182,
    "lon": -91.0815,
    "kind": "RCRAINFO",
    "sector": "VSQG",
    "releases_lbs": null,
    "sources": [
      "FRS"
    ]
  },
  {
    "name": "Alfalfa Nail Supply Inc",
    "lat": 30.472867,
    "lon": -90.817546,
    "kind": "RCRAINFO",
    "sector": "VSQG",
    "releases_lbs": null,
    "sources": [
      "FRS"
    ]
  },
  {
    "name": "Alfalfa Nail Supply Inc",
    "lat": 30.47249,
    "lon": -91.05585,
    "kind": "RCRAINFO",
    "sector": "VSQG",
    "releases_lbs": null,
    "sources": [
      "FRS"
    ]
  },
  {
    "name": "Alfred H Knight North America",
    "lat": 30.209782,
    "lon": -90.939676,
    "kind": "RCRAINFO",
    "sector": "SQG",
    "releases_lbs": null,
    "sources": [
      "FRS"
    ]
  },
  {
    "name": "All American Lube",
    "lat": 30.26209,
    "lon": -90.9076,
    "kind": "RCRAINFO",
    "sector": "UNSPECIFIED UNIVERSE",
    "releases_lbs": null,
    "sources": [
      "FRS"
    ]
  },
  {
    "name": "All American Resources",
    "lat": 30.264628,
    "lon": -90.957009,
    "kind": "RCRAINFO",
    "sector": "VSQG",
    "releases_lbs": null,
    "sources": [
      "FRS"
    ]
  },
  {
    "name": "All Crane Rental Of Louisiana Llc",
    "lat": 30.25461,
    "lon": -90.97895,
    "kind": "NPDES, RCRAINFO",
    "sector": "ICIS-NPDES NON-MAJOR, VSQG",
    "releases_lbs": null,
    "sources": [
      "FRS"
    ]
  },
  {
    "name": "All God'S Children, Inc.",
    "lat": 30.403083,
    "lon": -90.902028,
    "kind": "NPDES",
    "sector": "ICIS-NPDES NON-MAJOR",
    "releases_lbs": null,
    "sources": [
      "FRS"
    ]
  },
  {
    "name": "All Pro Auto Body Inc",
    "lat": 30.327213,
    "lon": -90.905204,
    "kind": "RCRAINFO",
    "sector": "OTHER HAZARDOUS WASTE ACTIVITIES",
    "releases_lbs": null,
    "sources": [
      "FRS"
    ]
  },
  {
    "name": "All Pro Paint & Body Inc",
    "lat": 30.46586,
    "lon": -91.10642,
    "kind": "RCRAINFO",
    "sector": "UNSPECIFIED UNIVERSE",
    "releases_lbs": null,
    "sources": [
      "FRS"
    ]
  },
  {
    "name": "All Star Automotive Group",
    "lat": 30.333804,
    "lon": -90.985379,
    "kind": "NPDES, RCRAINFO",
    "sector": "ICIS-NPDES NON-MAJOR, UNSPECIFIED UNIVERSE, VSQG",
    "releases_lbs": null,
    "sources": [
      "FRS"
    ]
  },
  {
    "name": "All Star Automotive Group",
    "lat": 30.40022,
    "lon": -91.05477,
    "kind": "NPDES",
    "sector": "ICIS-NPDES NON-MAJOR",
    "releases_lbs": null,
    "sources": [
      "FRS"
    ]
  },
  {
    "name": "All Star Automotive Imports Ii, Llc",
    "lat": 30.41681,
    "lon": -91.07001,
    "kind": "NPDES",
    "sector": "ICIS-NPDES NON-MAJOR",
    "releases_lbs": null,
    "sources": [
      "FRS"
    ]
  },
  {
    "name": "All Star Chevrolet",
    "lat": 30.40022,
    "lon": -91.05477,
    "kind": "RCRAINFO",
    "sector": "VSQG",
    "releases_lbs": null,
    "sources": [
      "FRS"
    ]
  },
  {
    "name": "All Star Chevrolet Inc",
    "lat": 30.37291,
    "lon": -91.03156,
    "kind": "RCRAINFO",
    "sector": "VSQG",
    "releases_lbs": null,
    "sources": [
      "FRS"
    ]
  },
  {
    "name": "All Star Chevrolet North",
    "lat": 30.533426,
    "lon": -91.141031,
    "kind": "NPDES",
    "sector": "ICIS-NPDES NON-MAJOR, STORM WATER CONSTRUCTION",
    "releases_lbs": null,
    "sources": [
      "FRS"
    ]
  },
  {
    "name": "All Star Chevrolet North Llc",
    "lat": 30.41767,
    "lon": -91.05315,
    "kind": "NPDES",
    "sector": "ICIS-NPDES NON-MAJOR",
    "releases_lbs": null,
    "sources": [
      "FRS"
    ]
  },
  {
    "name": "All Star Chevrolet North Llc",
    "lat": 30.580692,
    "lon": -91.126436,
    "kind": "RCRAINFO",
    "sector": "SQG",
    "releases_lbs": null,
    "sources": [
      "FRS"
    ]
  },
  {
    "name": "All Star Dodge Isuzu",
    "lat": 30.452578,
    "lon": -90.955932,
    "kind": "NPDES, RCRAINFO",
    "sector": "ICIS-NPDES NON-MAJOR, VSQG",
    "releases_lbs": null,
    "sources": [
      "FRS"
    ]
  },
  {
    "name": "All Star Ford Lincoln Mercury",
    "lat": 30.25955,
    "lon": -90.93273,
    "kind": "RCRAINFO",
    "sector": "UNSPECIFIED UNIVERSE",
    "releases_lbs": null,
    "sources": [
      "FRS"
    ]
  },
  {
    "name": "All Star Hyundai Volvo Of Br",
    "lat": 30.41681,
    "lon": -91.07001,
    "kind": "RCRAINFO",
    "sector": "SQG",
    "releases_lbs": null,
    "sources": [
      "FRS"
    ]
  },
  {
    "name": "All Star Kia East",
    "lat": 30.46201,
    "lon": -91.03711,
    "kind": "NPDES, RCRAINFO",
    "sector": "ICIS-NPDES NON-MAJOR, VSQG",
    "releases_lbs": null,
    "sources": [
      "FRS"
    ]
  },
  {
    "name": "All Star Nissan",
    "lat": 30.46092,
    "lon": -91.04389,
    "kind": "NPDES",
    "sector": "ICIS-NPDES NON-MAJOR",
    "releases_lbs": null,
    "sources": [
      "FRS"
    ]
  },
  {
    "name": "All Star Pecue Development",
    "lat": 30.43155,
    "lon": -91.08074,
    "kind": "NPDES",
    "sector": "ICIS-NPDES NON-MAJOR, STORM WATER CONSTRUCTION",
    "releases_lbs": null,
    "sources": [
      "FRS"
    ]
  },
  {
    "name": "All Star Properties Iv, Llc",
    "lat": 30.46978,
    "lon": -90.91877,
    "kind": "NPDES",
    "sector": "ICIS-NPDES NON-MAJOR, STORM WATER CONSTRUCTION",
    "releases_lbs": null,
    "sources": [
      "FRS"
    ]
  },
  {
    "name": "All Star Toyota Of Baton Rouge",
    "lat": 30.442222,
    "lon": -91.089722,
    "kind": "NPDES, RCRAINFO",
    "sector": "ICIS-NPDES NON-MAJOR, VSQG",
    "releases_lbs": null,
    "sources": [
      "FRS"
    ]
  },
  {
    "name": "All Truck Parts & Equip Co Inc",
    "lat": 30.46749,
    "lon": -91.00487,
    "kind": "NPDES",
    "sector": "ICIS-NPDES UNPERMITTED",
    "releases_lbs": null,
    "sources": [
      "FRS"
    ]
  },
  {
    "name": "Allain'S Llc",
    "lat": 30.37431,
    "lon": -91.19308,
    "kind": "NPDES",
    "sector": "ICIS-NPDES NON-MAJOR, STORM WATER CONSTRUCTION",
    "releases_lbs": null,
    "sources": [
      "FRS"
    ]
  },
  {
    "name": "Allatto Enterprise",
    "lat": 30.481596,
    "lon": -90.913886,
    "kind": "NPDES",
    "sector": "ICIS-NPDES NON-MAJOR",
    "releases_lbs": null,
    "sources": [
      "FRS"
    ]
  },
  {
    "name": "Allements Robertson Mch Wks",
    "lat": 30.45677,
    "lon": -91.16739,
    "kind": "RCRAINFO",
    "sector": "UNSPECIFIED UNIVERSE",
    "releases_lbs": null,
    "sources": [
      "FRS"
    ]
  },
  {
    "name": "Allen Enterprises Of Iberville Dba Priority Auto Body, Llc",
    "lat": 30.27674,
    "lon": -91.22387,
    "kind": "RCRAINFO",
    "sector": "LQG",
    "releases_lbs": null,
    "sources": [
      "FRS"
    ]
  },
  {
    "name": "Allen Marine Inc",
    "lat": 30.51531,
    "lon": -91.15162,
    "kind": "RCRAINFO",
    "sector": "UNSPECIFIED UNIVERSE",
    "releases_lbs": null,
    "sources": [
      "FRS"
    ]
  },
  {
    "name": "Allen'S Lot Clearing Air Curtain Destruc",
    "lat": 30.65411,
    "lon": -90.97372,
    "kind": "AIR, AIRS/AFS",
    "sector": "AIR EMISSIONS CLASSIFICATION UNKNOWN, AIR MINOR",
    "releases_lbs": null,
    "sources": [
      "FRS"
    ]
  },
  {
    "name": "Allens Body Shop Inc",
    "lat": 30.15428,
    "lon": -90.87954,
    "kind": "RCRAINFO",
    "sector": "VSQG",
    "releases_lbs": null,
    "sources": [
      "FRS"
    ]
  },
  {
    "name": "Allflex Usa Llc",
    "lat": 30.473436,
    "lon": -91.066188,
    "kind": "BR, RCRAINFO",
    "sector": "HAZARDOUS WASTE BIENNIAL REPORTER, SQG",
    "releases_lbs": null,
    "sources": [
      "FRS"
    ]
  },
  {
    "name": "Alliance Auto Paint & Supplies Inc",
    "lat": 30.46806,
    "lon": -91.10074,
    "kind": "RCRAINFO",
    "sector": "VSQG",
    "releases_lbs": null,
    "sources": [
      "FRS"
    ]
  },
  {
    "name": "Allied Chem Corp Fibers & Plastics Co",
    "lat": 30.541667,
    "lon": -91.18,
    "kind": "SEMS",
    "sector": "SUPERFUND (NON-NPL)",
    "releases_lbs": null,
    "sources": [
      "FRS"
    ]
  },
  {
    "name": "Allied Discount Tire No 4",
    "lat": 30.47155,
    "lon": -91.10908,
    "kind": "RCRAINFO",
    "sector": "UNSPECIFIED UNIVERSE",
    "releases_lbs": null,
    "sources": [
      "FRS"
    ]
  },
  {
    "name": "Allied Discount Tire No 7",
    "lat": 30.46004,
    "lon": -91.052,
    "kind": "RCRAINFO",
    "sector": "UNSPECIFIED UNIVERSE",
    "releases_lbs": null,
    "sources": [
      "FRS"
    ]
  },
  {
    "name": "Allied Discount Tire No 9",
    "lat": 30.393304,
    "lon": -91.110544,
    "kind": "RCRAINFO",
    "sector": "UNSPECIFIED UNIVERSE",
    "releases_lbs": null,
    "sources": [
      "FRS"
    ]
  },
  {
    "name": "Allied Systems Ltd",
    "lat": 30.440972,
    "lon": -91.210458,
    "kind": "RCRAINFO",
    "sector": "VSQG",
    "releases_lbs": null,
    "sources": [
      "FRS"
    ]
  },
  {
    "name": "Allied Tires",
    "lat": 30.459024,
    "lon": -91.058232,
    "kind": "RCRAINFO",
    "sector": "UNSPECIFIED UNIVERSE",
    "releases_lbs": null,
    "sources": [
      "FRS"
    ]
  },
  {
    "name": "Alligator Bayou Swamp Tours",
    "lat": 30.32175,
    "lon": -91.02027,
    "kind": "NPDES",
    "sector": "ICIS-NPDES NON-MAJOR, ICIS-NPDES UNPERMITTED",
    "releases_lbs": null,
    "sources": [
      "FRS"
    ]
  },
  {
    "name": "Allstars Builders Group Llc - Arbor Walk",
    "lat": 30.42239,
    "lon": -90.99686,
    "kind": "NPDES",
    "sector": "ICIS-NPDES NON-MAJOR, STORM WATER CONSTRUCTION",
    "releases_lbs": null,
    "sources": [
      "FRS"
    ]
  },
  {
    "name": "Allwaste Pollution Control Inc",
    "lat": 30.322114,
    "lon": -90.983544,
    "kind": "RCRAINFO",
    "sector": "OTHER HAZARDOUS WASTE ACTIVITIES",
    "releases_lbs": null,
    "sources": [
      "FRS"
    ]
  },
  {
    "name": "Allwaste Svcs Inc",
    "lat": 30.21934,
    "lon": -90.93207,
    "kind": "RCRAINFO",
    "sector": "UNSPECIFIED UNIVERSE",
    "releases_lbs": null,
    "sources": [
      "FRS"
    ]
  },
  {
    "name": "Alma Plantation Ltd",
    "lat": 30.59862,
    "lon": -91.389578,
    "kind": "AIR, AIRS/AFS, CEDRI",
    "sector": "AIR EMISSIONS CLASSIFICATION UNKNOWN, AIR MAJOR, AIR MINOR",
    "releases_lbs": null,
    "sources": [
      "FRS"
    ]
  },
  {
    "name": "Alma Sugar",
    "lat": 30.5949629,
    "lon": -91.3911836,
    "kind": "sugar_refinery",
    "sector": null,
    "releases_lbs": null,
    "sources": [
      "OSM"
    ]
  },
  {
    "name": "Almatis Ac Inc",
    "lat": 30.497745,
    "lon": -91.226859,
    "kind": "NPDES",
    "sector": "ICIS-NPDES NON-MAJOR, STORM WATER INDUSTRIAL",
    "releases_lbs": null,
    "sources": [
      "FRS"
    ]
  },
  {
    "name": "Almo Auto Shop",
    "lat": 30.45353,
    "lon": -91.15124,
    "kind": "RCRAINFO",
    "sector": "VSQG",
    "releases_lbs": null,
    "sources": [
      "FRS"
    ]
  },
  {
    "name": "Alpan Development Llc",
    "lat": 30.351197,
    "lon": -90.924139,
    "kind": "NPDES",
    "sector": "ICIS-NPDES NON-MAJOR, STORM WATER CONSTRUCTION",
    "releases_lbs": null,
    "sources": [
      "FRS"
    ]
  },
  {
    "name": "Alpan Developments Llc",
    "lat": 30.32987,
    "lon": -91.12817,
    "kind": "NPDES",
    "sector": "ICIS-NPDES NON-MAJOR, STORM WATER CONSTRUCTION",
    "releases_lbs": null,
    "sources": [
      "FRS"
    ]
  },
  {
    "name": "Alpan Developments Llc",
    "lat": 30.42036,
    "lon": -90.99008,
    "kind": "NPDES",
    "sector": "ICIS-NPDES UNPERMITTED",
    "releases_lbs": null,
    "sources": [
      "FRS"
    ]
  },
  {
    "name": "Alpan Developments Llc",
    "lat": 30.39798,
    "lon": -91.00293,
    "kind": "NPDES",
    "sector": "ICIS-NPDES NON-MAJOR, STORM WATER CONSTRUCTION",
    "releases_lbs": null,
    "sources": [
      "FRS"
    ]
  },
  {
    "name": "Alpan Developments Llc",
    "lat": 30.43286,
    "lon": -91.01293,
    "kind": "NPDES",
    "sector": "ICIS-NPDES NON-MAJOR, STORM WATER CONSTRUCTION",
    "releases_lbs": null,
    "sources": [
      "FRS"
    ]
  },
  {
    "name": "Alphabet Soup Learning Center",
    "lat": 30.32053,
    "lon": -90.96418,
    "kind": "NPDES",
    "sector": "ICIS-NPDES NON-MAJOR",
    "releases_lbs": null,
    "sources": [
      "FRS"
    ]
  },
  {
    "name": "Alvarez Construction Co Inc.",
    "lat": 30.37412,
    "lon": -90.98215,
    "kind": "NPDES",
    "sector": "ICIS-NPDES NON-MAJOR, STORM WATER CONSTRUCTION",
    "releases_lbs": null,
    "sources": [
      "FRS"
    ]
  },
  {
    "name": "Alvarez Construction Co Llc - High Cross Townhomes",
    "lat": 30.42866,
    "lon": -91.00738,
    "kind": "NPDES",
    "sector": "ICIS-NPDES NON-MAJOR, STORM WATER CONSTRUCTION",
    "releases_lbs": null,
    "sources": [
      "FRS"
    ]
  },
  {
    "name": "Alvarez Construction Co Llc - Turnstone Landing",
    "lat": 30.45863,
    "lon": -91.01164,
    "kind": "NPDES",
    "sector": "ICIS-NPDES NON-MAJOR, STORM WATER CONSTRUCTION",
    "releases_lbs": null,
    "sources": [
      "FRS"
    ]
  },
  {
    "name": "Alvarez Construction Co., Inc.",
    "lat": 30.33608,
    "lon": -91.13562,
    "kind": "NPDES",
    "sector": "ICIS-NPDES NON-MAJOR, STORM WATER CONSTRUCTION",
    "releases_lbs": null,
    "sources": [
      "FRS"
    ]
  },
  {
    "name": "Alvarez Construction Co., Llc - Juban Gardens",
    "lat": 30.457469,
    "lon": -90.918965,
    "kind": "NPDES",
    "sector": "ICIS-NPDES NON-MAJOR, STORM WATER CONSTRUCTION",
    "releases_lbs": null,
    "sources": [
      "FRS"
    ]
  },
  {
    "name": "Alvarez Construction Co., Llc - Long Farm",
    "lat": 30.37338,
    "lon": -91.01704,
    "kind": "NPDES",
    "sector": "ICIS-NPDES NON-MAJOR, STORM WATER CONSTRUCTION",
    "releases_lbs": null,
    "sources": [
      "FRS"
    ]
  },
  {
    "name": "Alvarez Construction Co., Llc - South Creek Subdivision",
    "lat": 30.437434,
    "lon": -90.927726,
    "kind": "NPDES",
    "sector": "ICIS-NPDES NON-MAJOR, STORM WATER CONSTRUCTION",
    "releases_lbs": null,
    "sources": [
      "FRS"
    ]
  },
  {
    "name": "Alvarez Construction Co., Llc - The Grove @ Ascension",
    "lat": 30.312417,
    "lon": -90.884889,
    "kind": "NPDES",
    "sector": "ICIS-NPDES NON-MAJOR, STORM WATER CONSTRUCTION",
    "releases_lbs": null,
    "sources": [
      "FRS"
    ]
  },
  {
    "name": "Alvarez Construction Co., Llc - University Club Plantation",
    "lat": 30.54226,
    "lon": -91.20011,
    "kind": "NPDES",
    "sector": "ICIS-NPDES NON-MAJOR, STORM WATER CONSTRUCTION",
    "releases_lbs": null,
    "sources": [
      "FRS"
    ]
  },
  {
    "name": "Alvarez Construction Company Inc.",
    "lat": 30.41012,
    "lon": -91.03602,
    "kind": "NPDES",
    "sector": "ICIS-NPDES NON-MAJOR, STORM WATER CONSTRUCTION",
    "releases_lbs": null,
    "sources": [
      "FRS"
    ]
  },
  {
    "name": "Alvarez Construction Company, Llc - Afton Oaks",
    "lat": 30.64997,
    "lon": -91.14704,
    "kind": "NPDES",
    "sector": "ICIS-NPDES NON-MAJOR, STORM WATER CONSTRUCTION",
    "releases_lbs": null,
    "sources": [
      "FRS"
    ]
  },
  {
    "name": "Alvarez Construction Company, Llc - Belle Maison Subdivision",
    "lat": 30.27697,
    "lon": -90.93543,
    "kind": "NPDES",
    "sector": "ICIS-NPDES NON-MAJOR, STORM WATER CONSTRUCTION",
    "releases_lbs": null,
    "sources": [
      "FRS"
    ]
  },
  {
    "name": "Alvarez Construction Company, Llc - Cheval Trails",
    "lat": 30.63478,
    "lon": -91.19397,
    "kind": "NPDES",
    "sector": "ICIS-NPDES NON-MAJOR, STORM WATER CONSTRUCTION",
    "releases_lbs": null,
    "sources": [
      "FRS"
    ]
  },
  {
    "name": "Alvarez Construction Company, Llc - Dawson Bluff Development",
    "lat": 30.384803,
    "lon": -91.081347,
    "kind": "NPDES",
    "sector": "ICIS-NPDES NON-MAJOR, STORM WATER CONSTRUCTION",
    "releases_lbs": null,
    "sources": [
      "FRS"
    ]
  },
  {
    "name": "Alvarez Construction Company, Llc - Oak Colony",
    "lat": 30.352917,
    "lon": -90.960222,
    "kind": "NPDES",
    "sector": "ICIS-NPDES NON-MAJOR, STORM WATER CONSTRUCTION",
    "releases_lbs": null,
    "sources": [
      "FRS"
    ]
  },
  {
    "name": "Alvarez Construction Company, Llc - River Hills Farm",
    "lat": 30.36583,
    "lon": -91.14918,
    "kind": "NPDES",
    "sector": "ICIS-NPDES NON-MAJOR, STORM WATER CONSTRUCTION",
    "releases_lbs": null,
    "sources": [
      "FRS"
    ]
  },
  {
    "name": "Alvarez Construction Llc - Ironwood Estates",
    "lat": 30.319139,
    "lon": -90.947444,
    "kind": "NPDES",
    "sector": "ICIS-NPDES NON-MAJOR, STORM WATER CONSTRUCTION",
    "releases_lbs": null,
    "sources": [
      "FRS"
    ]
  },
  {
    "name": "Alvarez Construction Llc - The Sanctuary @ Juban Crossing",
    "lat": 30.482972,
    "lon": -90.91125,
    "kind": "NPDES",
    "sector": "ICIS-NPDES NON-MAJOR, STORM WATER CONSTRUCTION",
    "releases_lbs": null,
    "sources": [
      "FRS"
    ]
  },
  {
    "name": "Alvin Castania",
    "lat": 30.27087,
    "lon": -91.22213,
    "kind": "NPDES",
    "sector": "ICIS-NPDES UNPERMITTED",
    "releases_lbs": null,
    "sources": [
      "FRS"
    ]
  },
  {
    "name": "Amazon.Com Services Inc - Btr1",
    "lat": 30.45571,
    "lon": -91.0895,
    "kind": "RCRAINFO",
    "sector": "LQG",
    "releases_lbs": null,
    "sources": [
      "FRS"
    ]
  },
  {
    "name": "Amazon.Com Services Llc - Btr9",
    "lat": 30.45334,
    "lon": -91.25144,
    "kind": "RCRAINFO",
    "sector": "SQG",
    "releases_lbs": null,
    "sources": [
      "FRS"
    ]
  },
  {
    "name": "Amazon.Com Services Llc - Dlb2",
    "lat": 30.384444,
    "lon": -91.056111,
    "kind": "NPDES, RCRAINFO",
    "sector": "ICIS-NPDES NON-MAJOR, SQG, STORM WATER CONSTRUCTION",
    "releases_lbs": null,
    "sources": [
      "FRS"
    ]
  },
  {
    "name": "Amerco Real Estate Company - Castille Road Facility",
    "lat": 30.367306,
    "lon": -91.031139,
    "kind": "NPDES",
    "sector": "ICIS-NPDES NON-MAJOR",
    "releases_lbs": null,
    "sources": [
      "FRS"
    ]
  },
  {
    "name": "America Homeland Llc - Cedar Springs",
    "lat": 30.29143,
    "lon": -90.88877,
    "kind": "NPDES",
    "sector": "ICIS-NPDES NON-MAJOR, STORM WATER CONSTRUCTION",
    "releases_lbs": null,
    "sources": [
      "FRS"
    ]
  },
  {
    "name": "America Homeland Llc - City Square",
    "lat": 30.360403,
    "lon": -91.106677,
    "kind": "NPDES",
    "sector": "ICIS-NPDES NON-MAJOR, STORM WATER CONSTRUCTION",
    "releases_lbs": null,
    "sources": [
      "FRS"
    ]
  },
  {
    "name": "America Homeland Llc - Eliza Garden Subdivision",
    "lat": 30.371111,
    "lon": -91.138333,
    "kind": "NPDES",
    "sector": "ICIS-NPDES NON-MAJOR, STORM WATER CONSTRUCTION",
    "releases_lbs": null,
    "sources": [
      "FRS"
    ]
  },
  {
    "name": "America Homeland Llc - Garden Hill",
    "lat": 30.38844,
    "lon": -90.98871,
    "kind": "NPDES",
    "sector": "ICIS-NPDES NON-MAJOR, STORM WATER CONSTRUCTION",
    "releases_lbs": null,
    "sources": [
      "FRS"
    ]
  },
  {
    "name": "America Homeland Llc - Grand Oaks",
    "lat": 30.23344,
    "lon": -90.95227,
    "kind": "NPDES",
    "sector": "ICIS-NPDES NON-MAJOR, STORM WATER CONSTRUCTION",
    "releases_lbs": null,
    "sources": [
      "FRS"
    ]
  },
  {
    "name": "America Homeland Llc - Juban Gardens",
    "lat": 30.457469,
    "lon": -90.918965,
    "kind": "NPDES",
    "sector": "ICIS-NPDES NON-MAJOR, STORM WATER CONSTRUCTION",
    "releases_lbs": null,
    "sources": [
      "FRS"
    ]
  },
  {
    "name": "America Homeland Llc - Lake Villas",
    "lat": 30.39212,
    "lon": -91.1601,
    "kind": "NPDES",
    "sector": "ICIS-NPDES NON-MAJOR, STORM WATER CONSTRUCTION",
    "releases_lbs": null,
    "sources": [
      "FRS"
    ]
  },
  {
    "name": "America Homeland Llc - Mallard Park",
    "lat": 30.3498,
    "lon": -90.9705,
    "kind": "NPDES",
    "sector": "ICIS-NPDES NON-MAJOR, STORM WATER CONSTRUCTION",
    "releases_lbs": null,
    "sources": [
      "FRS"
    ]
  },
  {
    "name": "America Homeland Llc - Rose Gardens",
    "lat": 30.389075,
    "lon": -91.005233,
    "kind": "NPDES",
    "sector": "ICIS-NPDES NON-MAJOR, STORM WATER CONSTRUCTION",
    "releases_lbs": null,
    "sources": [
      "FRS"
    ]
  },
  {
    "name": "America Homeland Llc - Woodland Manor",
    "lat": 30.24328,
    "lon": -90.92916,
    "kind": "NPDES",
    "sector": "ICIS-NPDES NON-MAJOR, STORM WATER CONSTRUCTION",
    "releases_lbs": null,
    "sources": [
      "FRS"
    ]
  },
  {
    "name": "America Homeland, Llc",
    "lat": 30.278056,
    "lon": -90.917778,
    "kind": "NPDES",
    "sector": "ICIS-NPDES NON-MAJOR, STORM WATER CONSTRUCTION",
    "releases_lbs": null,
    "sources": [
      "FRS"
    ]
  },
  {
    "name": "America Homeland, Llc",
    "lat": 30.351944,
    "lon": -91.106944,
    "kind": "NPDES",
    "sector": "ICIS-NPDES NON-MAJOR, STORM WATER CONSTRUCTION",
    "releases_lbs": null,
    "sources": [
      "FRS"
    ]
  },
  {
    "name": "America Homeland, Llc - Christy Place Subdivision Wwtp",
    "lat": 30.29863,
    "lon": -90.95178,
    "kind": "NPDES",
    "sector": "ICIS-NPDES NON-MAJOR, STORM WATER CONSTRUCTION",
    "releases_lbs": null,
    "sources": [
      "FRS"
    ]
  },
  {
    "name": "America Homeland, Llc - Spring Gardens",
    "lat": 30.39172,
    "lon": -91.02277,
    "kind": "NPDES",
    "sector": "ICIS-NPDES NON-MAJOR, STORM WATER CONSTRUCTION",
    "releases_lbs": null,
    "sources": [
      "FRS"
    ]
  },