[{"id": "nr1", "address": "2750 Millerville Rd   # 148292", "lat": 30.434932101415, "lon": -91.024447496191, "price": "", "beds": "", "baths": "", "sqft": "", "url": "https://www.zillow.com/apartments/baton-rouge-la/the-regent-apartment-homes/5Xhw8B/"}, {"id": "nr2", "address": "5500 Perkins Rd   # 3131", "lat": 30.410302963272, "lon": -91.131069272792, "price": "", "beds": "", "baths": "", "sqft": "", "url": "https://www.zillow.com/apartments/baton-rouge-la/the-district-apartments/5YyFpY/"}, {"id": "nr3", "address": "11888 Old Hammond Hwy # fa691bb87", "lat": 30.438480968051, "lon": -91.051422792827, "price": "", "beds": "", "baths": "", "sqft": "", "url": "https://www.zillow.com/apartments/baton-rouge-la/spires-of-sherwood/5Xhw8Y/"}, {"id": "nr4", "address": "8001 Pine Valley Dr # 102", "lat": 30.3789662, "lon": -91.0242009, "price": "", "beds": "", "baths": "", "sqft": "", "url": "https://www.zillow.com/apartments/baton-rouge-la/cedar-grove-townhomes/Ck8ppc/"}, {"id": "nr5", "address": "11111 N  Harrells Ferry Rd b4fa16f", "lat": 30.432883486617, "lon": -91.060308665855, "price": "", "beds": "", "baths": "", "sqft": "", "url": "https://www.zillow.com/apartments/baton-rouge-la/muriel-crossing-apartments/5XmFfb/"}, {"id": "nr6", "address": "417 E  State St # 2", "lat": 30.419314658837, "lon": -91.173318002368, "price": "", "beds": "", "baths": "", "sqft": "", "url": "https://www.zillow.com/apartments/baton-rouge-la/the-cove-at-state-street/CkPGqJ/"}, {"id": "nr7", "address": "16333 Columns Way # 6", "lat": 30.365509637802, "lon": -91.011986523407, "price": "", "beds": "", "baths": "", "sqft": "", "url": "https://www.zillow.com/apartments/baton-rouge-la/tapestry-at-long-farm/CkBRwR/"}, {"id": "nr8", "address": "10231 The Grove Blvd # 1209", "lat": 30.385900936377, "lon": -91.079943128367, "price": "", "beds": "", "baths": "", "sqft": "", "url": "https://www.zillow.com/apartments/baton-rouge-la/the-addison-apartments/CkBV3Y/"}, {"id": "nr9", "address": "4850 Rouzan Square Ave # 442", "lat": 30.413532, "lon": -91.1387003, "price": "", "beds": "", "baths": "", "sqft": "", "url": "https://www.zillow.com/apartments/baton-rouge-la/the-everly-at-rouzan/CYFpZC/"}, {"id": "nr10", "address": "10245 Airline Hwy", "lat": 30.418523070578, "lon": -91.071137233125, "price": "", "beds": "", "baths": "", "sqft": "", "url": "https://www.zillow.com/apartments/baton-rouge-la/ltl-royal-palms-baton-rouge-mt-llc/CjwDR5/"}, {"id": "nr11", "address": "6810 Jefferson Hwy  # 5208", "lat": 30.433853846712, "lon": -91.119696881431, "price": "", "beds": "", "baths": "", "sqft": "", "url": "https://www.zillow.com/apartments/baton-rouge-la/the-millennium-towne-center/5Xhw3Y/"}, {"id": "nr12", "address": "8363 Siegen Ln # 69", "lat": 30.372954407764, "lon": -91.071477887496, "price": "", "beds": "", "baths": "", "sqft": "", "url": "https://www.zillow.com/apartments/baton-rouge-la/siegen-calais-apartments/5Xhw4K/"}, {"id": "nr13", "address": "10156 Perkins Rowe", "lat": 30.378679276244, "lon": -91.09351298719, "price": "", "beds": "", "baths": "", "sqft": "", "url": "https://www.zillow.com/b/building/30.378508,-91.09368_ll/"}, {"id": "nr14", "address": "5960 Siegen Ln # 7204", "lat": 30.395922752128, "lon": -91.057804920379, "price": "", "beds": "", "baths": "", "sqft": "", "url": "https://www.zillow.com/apartments/baton-rouge-la/bristol-place-apartment-homes/5Xhw4Z/"}, {"id": "nr15", "address": "10231 Bluebonnet Blvd # D", "lat": 30.35111738228, "lon": -91.111811117574, "price": "", "beds": "", "baths": "", "sqft": "", "url": "https://www.zillow.com/apartments/baton-rouge-la/bend-on-bluebonnet/CjjCQP/"}, {"id": "nr16", "address": "7248 Perkins Rd", "lat": 30.397924932571, "lon": -91.1142463201, "price": "", "beds": "", "baths": "", "sqft": "", "url": "https://www.zillow.com/apartments/baton-rouge-la/perkins-palms/CjkmQr/"}, {"id": "nr17", "address": "2040 Gayosa St   cfe2f", "lat": 30.454113527153, "lon": -91.167883496451, "price": "", "beds": "", "baths": "", "sqft": "", "url": "https://www.zillow.com/apartments/baton-rouge-la/motor-city-apartments/CjjCWt/"}, {"id": "nr18", "address": "2501 Brightside Dr", "lat": 30.388759923601, "lon": -91.186790340546, "price": "1400", "beds": "1", "baths": "1", "sqft": "499", "url": "https://www.zillow.com/apartments/baton-rouge-la/solo-brightside/CpGmnN/"}, {"id": "nr19", "address": "5344 River Meadow Dr", "lat": 30.3887152, "lon": -91.2019615, "price": "2500", "beds": "3", "baths": "2", "sqft": "1847", "url": "https://www.zillow.com/homedetails/5344-River-Meadow-Dr-Baton-Rouge-LA-70820/66292427_zpid/"}, {"id": "nr20", "address": "4284 Oxford Ave", "lat": 30.404298282807, "lon": -91.172055589635, "price": "1150", "beds": "1", "baths": "1", "sqft": "500", "url": "https://www.zillow.com/homedetails/4284-Oxford-Ave-APT-101-Baton-Rouge-LA-70808/108614623_zpid/"}, {"id": "nr21", "address": "505 University Walk", "lat": 30.454020541038, "lon": -91.185748055198, "price": "", "beds": "", "baths": "", "sqft": "", "url": "https://www.zillow.com/b/505-university-walk-baton-rouge-la-5Xy9JQ/"}, {"id": "nr22", "address": "900 Dean Lee Dr", "lat": 30.385369545176, "lon": -91.171156099766, "price": "", "beds": "", "baths": "", "sqft": "", "url": "https://www.zillow.com/b/900-dean-lee-dr-baton-rouge-la-5YCFyM/"}, {"id": "nr23", "address": "4264 Oxford Ave", "lat": 30.40447193919, "lon": -91.172282354493, "price": "1395", "beds": "2", "baths": "1", "sqft": "1000", "url": "https://www.zillow.com/homedetails/4264-Oxford-Ave-3-Baton-Rouge-LA-70808/458861973_zpid/"}, {"id": "nr24", "address": "2534 Oleander St", "lat": 30.442288580907, "lon": -91.161889877823, "price": "3000", "beds": "4", "baths": "3", "sqft": "1981", "url": "https://www.zillow.com/homedetails/2534-Oleander-St-Baton-Rouge-LA-70806/2057460764_zpid/"}, {"id": "nr25", "address": "4253 Janet Ave", "lat": 30.402020775536, "lon": -91.174989195452, "price": "", "beds": "", "baths": "", "sqft": "", "url": "https://www.zillow.com/b/4253-janet-ave-baton-rouge-la-9JtY5H/"}, {"id": "nr26", "address": "714 Jennifer Jean Dr", "lat": 30.398706679458, "lon": -91.175963804603, "price": "1200", "beds": "2", "baths": "1", "sqft": "1100", "url": "https://www.zillow.com/homedetails/714-Jennifer-Jean-Dr-Baton-Rouge-LA-70808/2069669932_zpid/"}, {"id": "nr27", "address": "8155 Jefferson Hwy", "lat": 30.42347047268, "lon": -91.103465335151, "price": "1300", "beds": "2", "baths": "2", "sqft": "1265", "url": "https://www.zillow.com/homedetails/8155-Jefferson-Hwy-APT-1301-Baton-Rouge-LA-70809/81890325_zpid/"}, {"id": "nr28", "address": "5151 Etta St -G", "lat": 30.38976643171, "lon": -91.170140074512, "price": "1600", "beds": "3", "baths": "2", "sqft": "1475", "url": "https://www.zillow.com/homedetails/5151-Etta-St-3-G-Baton-Rouge-LA-70820/66799650_zpid/"}, {"id": "nr29", "address": "1726 Brightside Dr", "lat": 30.387851183509, "lon": -91.177668840434, "price": "1050", "beds": "2", "baths": "2", "sqft": "1018", "url": "https://www.zillow.com/homedetails/1726-Brightside-Dr-APT-D-Baton-Rouge-LA-70820/2059154603_zpid/"}, {"id": "nr30", "address": "4240 Dodson Ave", "lat": 30.402610440091, "lon": -91.174688897429, "price": "1935", "beds": "3", "baths": "2", "sqft": "1625", "url": "https://www.zillow.com/homedetails/4240-Dodson-Ave-C-Baton-Rouge-LA-70808/108612686_zpid/"}, {"id": "nr31", "address": "644 Highland Park Dr", "lat": 30.364779495305, "lon": -91.124822990671, "price": "2300", "beds": "4", "baths": "3", "sqft": "2148", "url": "https://www.zillow.com/homedetails/644-Highland-Park-Dr-Baton-Rouge-LA-70808/66293904_zpid/"}, {"id": "nr32", "address": "1712 Brightside Dr", "lat": 30.387780884213, "lon": -91.177028343798, "price": "1100", "beds": "2", "baths": "1", "sqft": "1088", "url": "https://www.zillow.com/homedetails/1712-Brightside-Dr-APT-B-Baton-Rouge-LA-70820/2069151854_zpid/"}, {"id": "nr33", "address": "1724 Brightside Dr", "lat": 30.387811560723, "lon": -91.177305631695, "price": "1025", "beds": "2", "baths": "2", "sqft": "1050", "url": "https://www.zillow.com/homedetails/1724-Brightside-Dr-A-Baton-Rouge-LA-70820/462317935_zpid/"}, {"id": "nr34", "address": "1704 Brightside Dr", "lat": 30.387768237558, "lon": -91.176912241287, "price": "1175", "beds": "2", "baths": "2", "sqft": "1088", "url": "https://www.zillow.com/homedetails/1704-Brightside-Dr-APT-C-Baton-Rouge-LA-70820/66808098_zpid/"}, {"id": "nr35", "address": "1763 Briar Oak Dr", "lat": 30.368654043407, "lon": -91.084579893483, "price": "1900", "beds": "3", "baths": "2", "sqft": "1453", "url": "https://www.zillow.com/homedetails/1763-Briar-Oak-Dr-Baton-Rouge-LA-70810/66232623_zpid/"}, {"id": "nr36", "address": "13543 Honey Dr", "lat": 30.365472250908, "lon": -91.06955664364, "price": "1650", "beds": "3", "baths": "2", "sqft": "1419", "url": "https://www.zillow.com/homedetails/13543-Honey-Dr-Baton-Rouge-LA-70810/66360977_zpid/"}, {"id": "nr37", "address": "3938 Garden View Dr", "lat": 30.411805265015, "lon": -91.072497590188, "price": "2000", "beds": "3", "baths": "2", "sqft": "1620", "url": "https://www.zillow.com/homedetails/3938-Garden-View-Dr-Baton-Rouge-LA-70809/66288796_zpid/"}, {"id": "nr38", "address": "7743 Bles Ave", "lat": 30.392207901748, "lon": -91.108665011716, "price": "1000", "beds": "2", "baths": "2", "sqft": "1050", "url": "https://www.zillow.com/homedetails/7743-Bles-Ave-1B-Baton-Rouge-LA-70810/460828064_zpid/"}, {"id": "nr39", "address": "1820 Jade Ave", "lat": 30.352495636675, "lon": -91.120929800396, "price": "1150", "beds": "3", "baths": "2", "sqft": "1096", "url": "https://www.zillow.com/homedetails/1820-Jade-Ave-Baton-Rouge-LA-70810/70846155_zpid/"}, {"id": "nr40", "address": "314 Bedford Dr", "lat": 30.445910228951, "lon": -91.157667797578, "price": "2200", "beds": "3", "baths": "2", "sqft": "1513", "url": "https://www.zillow.com/homedetails/314-Bedford-Dr-Baton-Rouge-LA-70806/66289663_zpid/"}, {"id": "nr41", "address": "1530 Goldenrod Ave", "lat": 30.434632670984, "lon": -91.15418140937, "price": "2400", "beds": "3", "baths": "1", "sqft": "1183", "url": "https://www.zillow.com/homedetails/1530-Goldenrod-Ave-Baton-Rouge-LA-70808/66286612_zpid/"}, {"id": "nr42", "address": "162 E State St", "lat": 30.418442594188, "lon": -91.175522162614, "price": "975", "beds": "1", "baths": "1", "sqft": "775", "url": "https://www.zillow.com/homedetails/162-E-State-St-Baton-Rouge-LA-70802/2078926317_zpid/"}, {"id": "nr43", "address": "5212 Butter Creek Ln", "lat": 30.397354684136, "lon": -91.099088267464, "price": "1200", "beds": "1", "baths": "1", "sqft": "750", "url": "https://www.zillow.com/homedetails/5212-Butter-Creek-Ln-D-6-Baton-Rouge-LA-70809/441940863_zpid/"}, {"id": "nr44", "address": "4250 Janet Ave", "lat": 30.401953718928, "lon": -91.175101369496, "price": "1500", "beds": "1", "baths": "1", "sqft": "650", "url": "https://www.zillow.com/homedetails/4250-Janet-Ave-6-Baton-Rouge-LA-70808/462305674_zpid/"}, {"id": "nr45", "address": "620 Kenmore Ave", "lat": 30.443100401412, "lon": -91.158168344302, "price": "1450", "beds": "2", "baths": "1", "sqft": "1500", "url": "https://www.zillow.com/homedetails/620-Kenmore-Ave-Baton-Rouge-LA-70806/347007925_zpid/"}, {"id": "nr46", "address": "4441 Burbank Dr", "lat": 30.399822670176, "lon": -91.17387673192, "price": "1700", "beds": "3", "baths": "2", "sqft": "1554", "url": "https://www.zillow.com/homedetails/4441-Burbank-Dr-APT-608-Baton-Rouge-LA-70820/66807789_zpid/"}, {"id": "nr47", "address": "2094 Elissalde St", "lat": 30.422497542686, "lon": -91.16251820061, "price": "2400", "beds": "3", "baths": "2", "sqft": "2016", "url": "https://www.zillow.com/homedetails/2094-Elissalde-St-Baton-Rouge-LA-70808/66267978_zpid/"}, {"id": "nr48", "address": "7950 Jefferson Hwy", "lat": 30.42533850727, "lon": -91.105664002356, "price": "1500", "beds": "2", "baths": "2", "sqft": "1200", "url": "https://www.zillow.com/homedetails/7950-Jefferson-Hwy-Baton-Rouge-LA-70809/251067285_zpid/"}, {"id": "nr49", "address": "1478 Sharlo Ave", "lat": 30.390002620439, "lon": -91.184749147594, "price": "1300", "beds": "2", "baths": "3", "sqft": "1300", "url": "https://www.zillow.com/homedetails/1478-Sharlo-Ave-Baton-Rouge-LA-70820/66377358_zpid/"}, {"id": "nr50", "address": "17247 Tidewater Ln", "lat": 30.320507241562, "lon": -91.129887546939, "price": "2700", "beds": "3", "baths": "2", "sqft": "1659", "url": "https://www.zillow.com/homedetails/17247-Tidewater-Ln-Baton-Rouge-LA-70810/452648851_zpid/"}, {"id": "nr51", "address": "3101 Highland Rd", "lat": 30.420465967139, "lon": -91.177508521385, "price": "1125", "beds": "2", "baths": "1", "sqft": "960", "url": "https://www.zillow.com/homedetails/3101-Highland-Rd-APT-308-Baton-Rouge-LA-70802/66805074_zpid/"}, {"id": "nr52", "address": "5236 Brightside Dr", "lat": 30.386494398187, "lon": -91.181330802622, "price": "1000", "beds": "2", "baths": "2", "sqft": "1100", "url": "https://www.zillow.com/homedetails/5236-Brightside-Dr-APT-3-Baton-Rouge-LA-70820/450532064_zpid/"}, {"id": "nr53", "address": "5131 Butter Creek Ln", "lat": 30.397921934912, "lon": -91.098888309823, "price": "2300", "beds": "2", "baths": "1", "sqft": "1100", "url": "https://www.zillow.com/homedetails/5131-Butter-Creek-Ln-Baton-Rouge-LA-70809/2078281235_zpid/"}, {"id": "nr54", "address": "5110 Butter Creek Ln", "lat": 30.397993396414, "lon": -91.09869376295, "price": "1725", "beds": "1", "baths": "2", "sqft": "900", "url": "https://www.zillow.com/homedetails/5110-Butter-Creek-Ln-A-2-Baton-Rouge-LA-70809/66276927_zpid/"}, {"id": "nr55", "address": "8506 Leake Ave", "lat": 30.348962655285, "lon": -91.135291028446, "price": "1150", "beds": "2", "baths": "2", "sqft": "1050", "url": "https://www.zillow.com/homedetails/8506-Leake-Ave-D-Baton-Rouge-LA-70810/2061144028_zpid/"}, {"id": "nr56", "address": "8240 Rocky Trail Ave", "lat": 30.36265959067, "lon": -91.142005538623, "price": "3095", "beds": "4", "baths": "3", "sqft": "1799", "url": "https://www.zillow.com/homedetails/8240-Rocky-Trail-Ave-Baton-Rouge-LA-70820/2081779674_zpid/"}, {"id": "nr57", "address": "2509 Olive St", "lat": 30.439668920539, "lon": -91.162054692029, "price": "1600", "beds": "2", "baths": "1", "sqft": "1300", "url": "https://www.zillow.com/homedetails/2509-Olive-St-Baton-Rouge-LA-70806/66273368_zpid/"}, {"id": "nr58", "address": "879 S Eugene St", "lat": 30.440696894401, "lon": -91.159830570769, "price": "1400", "beds": "1", "baths": "1", "sqft": "1000", "url": "https://www.zillow.com/homedetails/879-S-Eugene-St-5-Baton-Rouge-LA-70806/456871313_zpid/"}, {"id": "nr59", "address": "4326 Highland Rd", "lat": 30.403365258262, "lon": -91.172106028782, "price": "1400", "beds": "2", "baths": "1", "sqft": "1400", "url": "https://www.zillow.com/homedetails/4326-Highland-Rd-Baton-Rouge-LA-70808/66285659_zpid/"}, {"id": "nr60", "address": "7183 Chandler Dr", "lat": 30.391914799619, "lon": -91.133683694145, "price": "2000", "beds": "2", "baths": "2", "sqft": "1400", "url": "https://www.zillow.com/homedetails/7183-Chandler-Dr-Baton-Rouge-LA-70808/66292353_zpid/"}, {"id": "nr61", "address": "7855 Clover Ridge Ave", "lat": 30.368872812806, "lon": -91.127480044808, "price": "1500", "beds": "2", "baths": "1", "sqft": "975", "url": "https://www.zillow.com/homedetails/7855-Clover-Ridge-Ave-Baton-Rouge-LA-70820/66284618_zpid/"}, {"id": "nr62", "address": "115 S Leo St", "lat": 30.44829330232, "lon": -91.146253113398, "price": "995", "beds": "1", "baths": "1", "sqft": "500", "url": "https://www.zillow.com/homedetails/115-S-Leo-St-APT-6-Baton-Rouge-LA-70806/2080963376_zpid/"}, {"id": "nr63", "address": "7646 Antebellum Ave", "lat": 30.362858082187, "lon": -91.140757357401, "price": "2750", "beds": "3", "baths": "2", "sqft": "1545", "url": "https://www.zillow.com/homedetails/7646-Antebellum-Ave-Baton-Rouge-LA-70820/251967607_zpid/"}, {"id": "nr64", "address": "3202 Ivanhoe St", "lat": 30.418787608464, "lon": -91.174287430358, "price": "1300", "beds": "2", "baths": "1", "sqft": "750", "url": "https://www.zillow.com/homedetails/3202-Ivanhoe-St-Baton-Rouge-LA-70802/66291665_zpid/"}, {"id": "nr65", "address": "14014 Azalea Park Ave", "lat": 30.449599905071, "lon": -91.03029811356, "price": "1000", "beds": "2", "baths": "2", "sqft": "900", "url": "https://www.zillow.com/homedetails/14014-Azalea-Park-Ave-Baton-Rouge-LA-70816/66372663_zpid/"}, {"id": "nr66", "address": "3262 Wyoming St", "lat": 30.419168617294, "lon": -91.188499856681, "price": "1050", "beds": "2", "baths": "1", "sqft": "1000", "url": "https://www.zillow.com/homedetails/3262-Wyoming-St-2-Baton-Rouge-LA-70802/459688177_zpid/"}, {"id": "nr67", "address": "229 E State St", "lat": 30.418718322671, "lon": -91.174923487443, "price": "1200", "beds": "2", "baths": "1", "sqft": "800", "url": "https://www.zillow.com/homedetails/229-E-State-St-M-Baton-Rouge-LA-70802/2080490436_zpid/"}, {"id": "nr68", "address": "1564 Belmont Ave", "lat": 30.435339886273, "lon": -91.165275923014, "price": "825", "beds": "1", "baths": "1", "sqft": "375", "url": "https://www.zillow.com/homedetails/1564-Belmont-Ave-2-Baton-Rouge-LA-70808/443715607_zpid/"}, {"id": "nr69", "address": "5141 Brightside View Dr", "lat": 30.387389163108, "lon": -91.181068946264, "price": "1350", "beds": "2", "baths": "2", "sqft": "992", "url": "https://www.zillow.com/homedetails/5141-Brightside-View-Dr-Baton-Rouge-LA-70820/66372213_zpid/"}, {"id": "nr70", "address": "322 Flicker St", "lat": 30.533573876121, "lon": -91.197430631025, "price": "1200", "beds": "3", "baths": "1", "sqft": "1276", "url": "https://www.zillow.com/homedetails/322-Flicker-St-Baton-Rouge-LA-70807/66329881_zpid/"}, {"id": "nr71", "address": "14555 Old Hammond Hwy", "lat": 30.452017346868, "lon": -91.024034189778, "price": "2000", "beds": "6", "baths": "2", "sqft": "2000", "url": "https://www.zillow.com/homedetails/14555-Old-Hammond-Hwy-Baton-Rouge-LA-70816/461412596_zpid/"}, {"id": "nr72", "address": "3645 Gladiola St", "lat": 30.415833621707, "lon": -91.155511804305, "price": "1395", "beds": "1", "baths": "1", "sqft": "650", "url": "https://www.zillow.com/homedetails/3645-3647-Gladiola-St-7-Baton-Rouge-LA-70808/458320588_zpid/"}, {"id": "nr73", "address": "205 E State St", "lat": 30.418651003258, "lon": -91.175165765195, "price": "850", "beds": "0", "baths": "1", "sqft": "500", "url": "https://www.zillow.com/homedetails/205-E-State-St-1D-Baton-Rouge-LA-70802/452658592_zpid/"}, {"id": "nr74", "address": "5137 Nicholson Dr", "lat": 30.389443490937, "lon": -91.172552918663, "price": "1100", "beds": "1", "baths": "1", "sqft": "741", "url": "https://www.zillow.com/homedetails/5137-Nicholson-Dr-APT-B33-Baton-Rouge-LA-70820/66300457_zpid/"}, {"id": "nr75", "address": "2403 Brightside Dr", "lat": 30.38857513023, "lon": -91.185029044284, "price": "1800", "beds": "3", "baths": "4", "sqft": "1730", "url": "https://www.zillow.com/homedetails/2403-Brightside-Dr-APT-18-Baton-Rouge-LA-70820/104465586_zpid/"}, {"id": "nr76", "address": "2293 Hollydale Ave", "lat": 30.424586221401, "lon": -91.158223365724, "price": "1700", "beds": "2", "baths": "2", "sqft": "1200", "url": "https://www.zillow.com/homedetails/2293-Hollydale-Ave-APT-7C-Baton-Rouge-LA-70808/66384069_zpid/"}, {"id": "nr77", "address": "5213 Butter Creek Ln", "lat": 30.397408585222, "lon": -91.099205506932, "price": "975", "beds": "1", "baths": "1", "sqft": "700", "url": "https://www.zillow.com/homedetails/5213-Butter-Creek-Ln-APT-6-Baton-Rouge-LA-70809/66277017_zpid/"}, {"id": "nr78", "address": "10428 Jefferson Hwy", "lat": 30.408628302943, "lon": -91.067078966624, "price": "995", "beds": "0", "baths": "1", "sqft": "620", "url": "https://www.zillow.com/homedetails/10428-Jefferson-Hwy-APT-K-Baton-Rouge-LA-70809/458339308_zpid/"}, {"id": "nr79", "address": "115 Clara Dr", "lat": 30.400035284383, "lon": -91.167349748376, "price": "1150", "beds": "2", "baths": "1", "sqft": "750", "url": "https://www.zillow.com/homedetails/115-Clara-Dr-APT-2-Baton-Rouge-LA-70808/2091952921_zpid/"}, {"id": "nr80", "address": "1226 Stoneliegh Dr", "lat": 30.388519606578, "lon": -91.127869267377, "price": "2100", "beds": "4", "baths": "3", "sqft": "2200", "url": "https://www.zillow.com/homedetails/1226-Stoneliegh-Dr-Baton-Rouge-LA-70808/66283293_zpid/"}, {"id": "nr81", "address": "3625 Partridge Ln", "lat": 30.416181881414, "lon": -91.082889622012, "price": "1650", "beds": "3", "baths": "2", "sqft": "", "url": "https://www.zillow.com/homedetails/3625-Partridge-Ln-Baton-Rouge-LA-70809/188691302_zpid/"}, {"id": "nr82", "address": "10600 Lakes Blvd", "lat": 30.356345793778, "lon": -91.108955216798, "price": "", "beds": "", "baths": "", "sqft": "", "url": "https://www.zillow.com/b/10600-lakes-blvd-baton-rouge-la-CjgH4r/"}, {"id": "nr83", "address": "18548 Lake Camellia Ave", "lat": 30.356091104334, "lon": -90.98442954461, "price": "2100", "beds": "3", "baths": "2", "sqft": "1823", "url": "https://www.zillow.com/homedetails/18548-Lake-Camellia-Ave-Baton-Rouge-LA-70817/66333813_zpid/"}, {"id": "nr84", "address": "10655 Woodland Oaks Dr", "lat": 30.400870116532, "lon": -91.062684076716, "price": "2200", "beds": "3", "baths": "2", "sqft": "1852", "url": "https://www.zillow.com/homedetails/10655-Woodland-Oaks-Dr-Baton-Rouge-LA-70809/66798399_zpid/"}, {"id": "nr85", "address": "5050 Stumberg Ln", "lat": 30.405548490124, "lon": -91.037084416438, "price": "2000", "beds": "3", "baths": "3", "sqft": "1591", "url": "https://www.zillow.com/homedetails/5050-Stumberg-Ln-Baton-Rouge-LA-70816/66250313_zpid/"}, {"id": "nr86", "address": "402 Lee Dr", "lat": 30.397221970381, "lon": -91.156603982405, "price": "1045", "beds": "1", "baths": "1", "sqft": "600", "url": "https://www.zillow.com/homedetails/402-Lee-Dr-APT-1C-Baton-Rouge-LA-70808/66275703_zpid/"}, {"id": "nr87", "address": "710 Park Blvd", "lat": 30.441928962548, "lon": -91.169138102301, "price": "1800", "beds": "2", "baths": "1", "sqft": "1111", "url": "https://www.zillow.com/homedetails/710-Park-Blvd-APT-6-Baton-Rouge-LA-70806/66232124_zpid/"}, {"id": "nr88", "address": "6765 Corporate Blvd", "lat": 30.425071676082, "lon": -91.123117953389, "price": "2100", "beds": "1", "baths": "1", "sqft": "700", "url": "https://www.zillow.com/homedetails/6765-Corporate-Blvd-APT-5103-Baton-Rouge-LA-70809/81892209_zpid/"}, {"id": "nr89", "address": "1939 Terrace Ave", "lat": 30.436698909388, "lon": -91.168328336162, "price": "1900", "beds": "2", "baths": "1", "sqft": "1005", "url": "https://www.zillow.com/homedetails/1939-Terrace-Ave-Baton-Rouge-LA-70806/462761561_zpid/"}, {"id": "nr90", "address": "814 Lonita St", "lat": 30.446647960899, "lon": -91.073473146321, "price": "1900", "beds": "3", "baths": "2", "sqft": "1678", "url": "https://www.zillow.com/homedetails/814-Lonita-St-Baton-Rouge-LA-70815/66301982_zpid/"}, {"id": "nr91", "address": "8732 Jefferson Hwy", "lat": 30.4183347, "lon": -91.0918123, "price": "1700", "beds": "2", "baths": "3", "sqft": "1300", "url": "https://www.zillow.com/homedetails/8732-Jefferson-Hwy-Baton-Rouge-LA-70809/66236137_zpid/"}, {"id": "nr92", "address": "2001 Red Stick Dr", "lat": 30.4321241, "lon": -91.0787175, "price": "2150", "beds": "3", "baths": "3", "sqft": "1559", "url": "https://www.zillow.com/homedetails/2001-Red-Stick-Dr-Baton-Rouge-LA-70815/338762417_zpid/"}, {"id": "nr93", "address": "8212 Argosy Ct", "lat": 30.428278565825, "lon": -91.101003429648, "price": "1800", "beds": "3", "baths": "2", "sqft": "1433", "url": "https://www.zillow.com/homedetails/8212-Argosy-Ct-Baton-Rouge-LA-70809/66294635_zpid/"}, {"id": "nr94", "address": "1046 Sedona Pines Dr", "lat": 30.455792675372, "lon": -91.009553313538, "price": "1950", "beds": "3", "baths": "2", "sqft": "1376", "url": "https://www.zillow.com/homedetails/1046-Sedona-Pines-Dr-Baton-Rouge-LA-70816/108613907_zpid/"}, {"id": "nr95", "address": "2122 Stonehenge Ave", "lat": 30.387171913308, "lon": -91.183663003863, "price": "1550", "beds": "2", "baths": "2", "sqft": "1540", "url": "https://www.zillow.com/homedetails/2122-Stonehenge-Ave-Baton-Rouge-LA-70820/66345861_zpid/"}, {"id": "nr96", "address": "8246 Ned Ave", "lat": 30.354859568872, "lon": -91.134603879488, "price": "750", "beds": "2", "baths": "2", "sqft": "990", "url": "https://www.zillow.com/homedetails/8246-Ned-Ave-APT-C-Baton-Rouge-LA-70820/2125853529_zpid/"}, {"id": "nr97", "address": "350 E State St", "lat": 30.419078349283, "lon": -91.173725255741, "price": "1700", "beds": "3", "baths": "2", "sqft": "1350", "url": "https://www.zillow.com/homedetails/350-E-State-St-Baton-Rouge-LA-70802/66298152_zpid/"}, {"id": "nr98", "address": "4009 Victory Dr", "lat": 30.4925913, "lon": -91.130654, "price": "1029", "beds": "0", "baths": "1", "sqft": "396", "url": "https://www.zillow.com/homedetails/4009-Victory-Dr-78704-Baton-Rouge-LA-70805/448455629_zpid/"}, {"id": "nr99", "address": "1977 Cherrydale Ave", "lat": 30.418100737046, "lon": -91.156053652543, "price": "2500", "beds": "4", "baths": "2", "sqft": "1852", "url": "https://www.zillow.com/homedetails/1977-Cherrydale-Ave-Baton-Rouge-LA-70808/66276467_zpid/"}, {"id": "nr100", "address": "1781 Province Pl", "lat": 30.4377898, "lon": -91.0461715, "price": "1100", "beds": "2", "baths": "3", "sqft": "1260", "url": "https://www.zillow.com/homedetails/1781-Province-Pl-DE-Baton-Rouge-LA-70816/2062948723_zpid/"}, {"id": "nr101", "address": "8028 Valley St", "lat": 30.4258068, "lon": -91.1452741, "price": "2100", "beds": "3", "baths": "2", "sqft": "1124", "url": "https://www.zillow.com/homedetails/8028-Valley-St-Baton-Rouge-LA-70808/445810405_zpid/"}, {"id": "nr102", "address": "10057 Jefferson Hwy", "lat": 30.409700052577, "lon": -91.071525686972, "price": "1800", "beds": "2", "baths": "2", "sqft": "1520", "url": "https://www.zillow.com/homedetails/10057-Jefferson-Hwy-Baton-Rouge-LA-70809/66354755_zpid/"}, {"id": "nr103", "address": "7656 Rienzi Blvd", "lat": 30.4277387, "lon": -91.107969, "price": 4000, "beds": 5, "baths": 3, "sqft": 6000, "url": "https://www.zillow.com/homedetails/7656-Rienzi-Blvd-Baton-Rouge-LA-70809/66289408_zpid/"}, {"id": "nr104", "address": "5284 Brightside View Dr", "lat": 30.3860043, "lon": -91.1814121, "price": 950, "beds": 2, "baths": 2, "sqft": 4416, "url": "https://www.zillow.com/homedetails/5284-Brightside-View-Dr-Baton-Rouge-LA-70820/66230739_zpid/"}, {"id": "nr105", "address": "619 North St", "lat": 30.4526596, "lon": -91.1845429, "price": 4000, "beds": 8, "baths": 3, "sqft": 4000, "url": "https://www.zillow.com/homedetails/619-North-St-Baton-Rouge-LA-70802/66229516_zpid/"}, {"id": "nr106", "address": "1409 N Acadian Thruway E", "lat": 30.4611275, "lon": -91.1553469, "price": 2500, "beds": 8, "baths": 3, "sqft": 3500, "url": "https://www.zillow.com/homedetails/1409-N-Acadian-Thruway-E-Baton-Rouge-LA-70802/455681122_zpid/"}, {"id": "nr107", "address": "6630 Rio Dr", "lat": 30.5037269, "lon": -91.1247839, "price": 1500, "beds": 4, "baths": 2, "sqft": 3168, "url": "https://www.zillow.com/homedetails/6630-Rio-Dr-Baton-Rouge-LA-70812/66278124_zpid/"}, {"id": "nr108", "address": "1934 Mission Dr", "lat": 30.465758, "lon": -91.1446724, "price": 1500, "beds": 3, "baths": 2, "sqft": 2950, "url": "https://www.zillow.com/homedetails/1934-Mission-Dr-Baton-Rouge-LA-70802/66228817_zpid/"}, {"id": "nr109", "address": "1656 Belmont Ave", "lat": 30.4348213, "lon": -91.1643488, "price": 6500, "beds": 4, "baths": 4, "sqft": 2928, "url": "https://www.zillow.com/homedetails/1656-Belmont-Ave-Baton-Rouge-LA-70808/188655247_zpid/"}, {"id": "nr110", "address": "2212 Belfleur St", "lat": 30.410584, "lon": -91.136248, "price": 4100, "beds": 3, "baths": 2, "sqft": 2845, "url": "https://www.zillow.com/homedetails/2212-Belfleur-St-Baton-Rouge-LA-70808/332939097_zpid/"}, {"id": "nr111", "address": "5163 Abelia Dr", "lat": 30.4322519, "lon": -91.1362471, "price": 3200, "beds": 4, "baths": 3, "sqft": 2724, "url": "https://www.zillow.com/homedetails/5163-Abelia-Dr-Baton-Rouge-LA-70808/66277336_zpid/"}, {"id": "nr112", "address": "2961 Congress Blvd", "lat": 30.416407, "lon": -91.134161, "price": 3200, "beds": 4, "baths": 3, "sqft": 2716, "url": "https://www.zillow.com/homedetails/2961-Congress-Blvd-Baton-Rouge-LA-70808/66285886_zpid/"}, {"id": "nr113", "address": "866 W Lakeview Dr", "lat": 30.361307, "lon": -91.0926512, "price": 2500, "beds": 4, "baths": 4, "sqft": 2664, "url": "https://www.zillow.com/homedetails/866-W-Lakeview-Dr-Baton-Rouge-LA-70810/66345427_zpid/"}, {"id": "nr114", "address": "2464 Kensington Dr", "lat": 30.4272781, "lon": -91.1018096, "price": 2600, "beds": 5, "baths": 3, "sqft": 2514, "url": "https://www.zillow.com/homedetails/2464-Kensington-Dr-Baton-Rouge-LA-70809/66273857_zpid/"}, {"id": "nr115", "address": "1595 Bellfort Dr", "lat": 30.4398563, "lon": -91.0595455, "price": 2000, "beds": 4, "baths": 2, "sqft": 2500, "url": "https://www.zillow.com/homedetails/1595-Bellfort-Dr-Baton-Rouge-LA-70815/66310791_zpid/"}, {"id": "nr116", "address": "3146 Washington Ave", "lat": 30.4653154, "lon": -91.1572128, "price": 2000, "beds": 5, "baths": 2, "sqft": 2500, "url": "https://www.zillow.com/homedetails/3146-Washington-Ave-Baton-Rouge-LA-70802/66232209_zpid/"}, {"id": "nr117", "address": "9537 Kevel Dr", "lat": 30.3667853, "lon": -91.1148181, "price": 2250, "beds": 3, "baths": 2, "sqft": 2403, "url": "https://www.zillow.com/homedetails/9537-Kevel-Dr-Baton-Rouge-LA-70810/66271146_zpid/"}, {"id": "nr118", "address": "3948 Preakness Dr", "lat": 30.4173656, "lon": -91.0591311, "price": 2200, "beds": 3, "baths": 2, "sqft": 2400, "url": "https://www.zillow.com/homedetails/3948-Preakness-Dr-Baton-Rouge-LA-70816/66333558_zpid/"}, {"id": "nr119", "address": "5734 Hyacinth Ave", "lat": 30.4046371, "lon": -91.1325717, "price": 3000, "beds": 3, "baths": 3, "sqft": 2370, "url": "https://www.zillow.com/homedetails/5734-Hyacinth-Ave-Baton-Rouge-LA-70808/66271966_zpid/"}, {"id": "nr120", "address": "998 Stanford Ave", "lat": 30.4088421, "lon": -91.1629056, "price": 3395, "beds": 3, "baths": 2, "sqft": 2342, "url": "https://www.zillow.com/homedetails/998-Stanford-Ave-APT-518-Baton-Rouge-LA-70808/108609935_zpid/"}, {"id": "nr121", "address": "535 Thornwood Dr", "lat": 30.4565169, "lon": -91.1022325, "price": 2400, "beds": 4, "baths": 2, "sqft": 2285, "url": "https://www.zillow.com/homedetails/535-Thornwood-Dr-Baton-Rouge-LA-70806/66267663_zpid/"}, {"id": "nr122", "address": "2120 Convention St", "lat": 30.4488377, "lon": -91.1665556, "price": 1675, "beds": 3, "baths": 2, "sqft": 2200, "url": "https://www.zillow.com/homedetails/2120-Convention-St-Baton-Rouge-LA-70806/66238052_zpid/"}, {"id": "nr123", "address": "5420 Heatherstone Dr", "lat": 30.3870558, "lon": -91.1844688, "price": 2590, "beds": 4, "baths": 5, "sqft": 2130, "url": "https://www.zillow.com/homedetails/5420-Heatherstone-Dr-Baton-Rouge-LA-70820/66362435_zpid/"}, {"id": "nr124", "address": "179 W Harrison St", "lat": 30.4287749, "lon": -91.1827554, "price": 1950, "beds": 5, "baths": 3, "sqft": 2124, "url": "https://www.zillow.com/homedetails/179-W-Harrison-St-Baton-Rouge-LA-70802/66292291_zpid/"}, {"id": "nr125", "address": "10180 Devonshire Dr", "lat": 30.4020085, "lon": -91.0702732, "price": 2200, "beds": 4, "baths": 3, "sqft": 2100, "url": "https://www.zillow.com/homedetails/10180-Devonshire-Dr-Baton-Rouge-LA-70809/66356111_zpid/"}, {"id": "nr126", "address": "5139 Cheneau Ln", "lat": 30.410895, "lon": -91.138228, "price": 5000, "beds": 3, "baths": 3, "sqft": 2094, "url": "https://www.zillow.com/homedetails/5139-Cheneau-Ln-Baton-Rouge-LA-70808/332939208_zpid/"}, {"id": "nr127", "address": "2166 Hillridge Ave", "lat": 30.3463265, "lon": -91.1047591, "price": 2500, "beds": 4, "baths": 2, "sqft": 2051, "url": "https://www.zillow.com/homedetails/2166-Hillridge-Ave-Baton-Rouge-LA-70810/103859338_zpid/"}, {"id": "nr128", "address": "9144 High Point Rd", "lat": 30.3730892, "lon": -91.1175243, "price": 2100, "beds": 4, "baths": 2, "sqft": 2050, "url": "https://www.zillow.com/homedetails/9144-High-Point-Rd-Baton-Rouge-LA-70810/66290999_zpid/"}, {"id": "nr129", "address": "7832 Pisa Dr", "lat": 30.372863, "lon": -91.137396, "price": 2000, "beds": 3, "baths": 3, "sqft": 2026, "url": "https://www.zillow.com/homedetails/7832-Pisa-Dr-Baton-Rouge-LA-70820/338763113_zpid/"}, {"id": "nr130", "address": "944 Princewood Ct", "lat": 30.4570712, "lon": -91.1063119, "price": 1800, "beds": 2, "baths": 2, "sqft": 2025, "url": "https://www.zillow.com/homedetails/944-Princewood-Ct-Baton-Rouge-LA-70806/66267678_zpid/"}, {"id": "nr131", "address": "10741 Hillmont Ave", "lat": 30.3451402, "lon": -91.1077978, "price": 2500, "beds": 3, "baths": 3, "sqft": 2010, "url": "https://www.zillow.com/homedetails/10741-Hillmont-Ave-Baton-Rouge-LA-70810/66384856_zpid/"}, {"id": "nr132", "address": "15013 Forest Grove Ave", "lat": 30.5449898, "lon": -91.0220913, "price": 860, "beds": 2, "baths": 2, "sqft": 2000, "url": "https://www.zillow.com/homedetails/15013-Forest-Grove-Ave-Baton-Rouge-LA-70818/66379621_zpid/"}, {"id": "nr133", "address": "735 Bromley Dr", "lat": 30.382633, "lon": -91.1299525, "price": 2300, "beds": 3, "baths": 2, "sqft": 2000, "url": "https://www.zillow.com/homedetails/735-Bromley-Dr-Baton-Rouge-LA-70808/66277809_zpid/"}, {"id": "nr134", "address": "2018 Glasgow Ave", "lat": 30.411698, "lon": -91.1418655, "price": 5000, "beds": 3, "baths": 2, "sqft": 1984, "url": "https://www.zillow.com/homedetails/2018-Glasgow-Ave-Baton-Rouge-LA-70808/123624285_zpid/"}, {"id": "nr135", "address": "2605 Adams Ave", "lat": 30.4685034, "lon": -91.1627381, "price": 1650, "beds": 4, "baths": 3, "sqft": 1984, "url": "https://www.zillow.com/homedetails/2605-Adams-Ave-Baton-Rouge-LA-70802/66233921_zpid/"}, {"id": "nr136", "address": "1167 Aurora Pl", "lat": 30.4386577, "lon": -91.0963113, "price": 3500, "beds": 3, "baths": 2, "sqft": 1980, "url": "https://www.zillow.com/homedetails/1167-Aurora-Pl-Baton-Rouge-LA-70806/66273410_zpid/"}, {"id": "nr137", "address": "1406 Alouette Dr", "lat": 30.3609644, "lon": -91.1341408, "price": 2400, "beds": 3, "baths": 2, "sqft": 1980, "url": "https://www.zillow.com/homedetails/1406-Alouette-Dr-Baton-Rouge-LA-70820/247541710_zpid/"}, {"id": "nr138", "address": "755 Burgin Ave", "lat": 30.399254, "lon": -91.1530648, "price": 2350, "beds": 4, "baths": 2, "sqft": 1980, "url": "https://www.zillow.com/homedetails/755-Burgin-Ave-Baton-Rouge-LA-70808/66272465_zpid/"}, {"id": "nr139", "address": "9516 Vienna Ave", "lat": 30.3885752, "lon": -91.1036128, "price": 2400, "beds": 4, "baths": 2, "sqft": 1963, "url": "https://www.zillow.com/homedetails/9516-Vienna-Ave-Baton-Rouge-LA-70810/66277637_zpid/"}, {"id": "nr140", "address": "10642 Molly Ave", "lat": 30.3716144, "lon": -91.0954545, "price": 2300, "beds": 3, "baths": 2, "sqft": 1950, "url": "https://www.zillow.com/homedetails/10642-Molly-Ave-Baton-Rouge-LA-70810/66235246_zpid/"}, {"id": "nr141", "address": "8245 Rainbow Dr", "lat": 30.4155502, "lon": -91.1014247, "price": 2000, "beds": 4, "baths": 3, "sqft": 1945, "url": "https://www.zillow.com/homedetails/8245-Rainbow-Dr-Baton-Rouge-LA-70809/66359305_zpid/"}, {"id": "nr142", "address": "8705 Metairie Dr", "lat": 30.3698181, "lon": -91.0646796, "price": 2200, "beds": 4, "baths": 2, "sqft": 1942, "url": "https://www.zillow.com/homedetails/8705-Metairie-Dr-Baton-Rouge-LA-70810/66347974_zpid/"}, {"id": "nr143", "address": "632 Summit Ridge Dr", "lat": 30.4487806, "lon": -91.0778137, "price": 2000, "beds": 3, "baths": 2, "sqft": 1900, "url": "https://www.zillow.com/homedetails/632-Summit-Ridge-Dr-Baton-Rouge-LA-70815/66314214_zpid/"}, {"id": "nr144", "address": "7738 Menlo Dr", "lat": 30.3784653, "lon": -91.1335024, "price": 2300, "beds": 3, "baths": 2, "sqft": 1900, "url": "https://www.zillow.com/homedetails/7738-Menlo-Dr-Baton-Rouge-LA-70808/66280309_zpid/"}, {"id": "nr145", "address": "2684 Cork St", "lat": 30.4416364, "lon": -91.1606065, "price": 2700, "beds": 3, "baths": 3, "sqft": 1895, "url": "https://www.zillow.com/homedetails/2684-Cork-St-Baton-Rouge-LA-70806/70843747_zpid/"}, {"id": "nr146", "address": "3572 Madeira Dr", "lat": 30.3921039, "lon": -91.1000856, "price": 2000, "beds": 3, "baths": 2, "sqft": 1887, "url": "https://www.zillow.com/homedetails/3572-Madeira-Dr-Baton-Rouge-LA-70810/66266279_zpid/"}, {"id": "nr147", "address": "10111 Jefferson Hwy", "lat": 30.4096608, "lon": -91.0711875, "price": 2100, "beds": 3, "baths": 3, "sqft": 1877, "url": "https://www.zillow.com/homedetails/10111-Jefferson-Hwy-Baton-Rouge-LA-70809/66346266_zpid/"}, {"id": "nr148", "address": "246 Maxine Dr", "lat": 30.3753092, "lon": -91.1279908, "price": 2500, "beds": 3, "baths": 2, "sqft": 1877, "url": "https://www.zillow.com/homedetails/246-Maxine-Dr-Baton-Rouge-LA-70808/66281236_zpid/"}, {"id": "nr149", "address": "8505 Aston Ave", "lat": 30.3679905, "lon": -91.1320326, "price": 2300, "beds": 4, "baths": 2, "sqft": 1875, "url": "https://www.zillow.com/homedetails/8505-Aston-Ave-Baton-Rouge-LA-70820/123203115_zpid/"}, {"id": "nr150", "address": "9922 N Parkview Dr", "lat": 30.4468832, "lon": -91.0781814, "price": 2500, "beds": 3, "baths": 2, "sqft": 1847, "url": "https://www.zillow.com/homedetails/9922-N-Parkview-Dr-Baton-Rouge-LA-70815/66316284_zpid/"}, {"id": "nr151", "address": "1242 Sharlo Ave", "lat": 30.3896579, "lon": -91.1823914, "price": 1700, "beds": 3, "baths": 3, "sqft": 1837, "url": "https://www.zillow.com/homedetails/1242-Sharlo-Ave-C-2-Baton-Rouge-LA-70820/2056383201_zpid/"}, {"id": "nr152", "address": "822 Palmetto Point Dr", "lat": 30.375685, "lon": -91.148152, "price": 2300, "beds": 3, "baths": 2, "sqft": 1825, "url": "https://www.zillow.com/homedetails/822-Palmetto-Point-Dr-Baton-Rouge-LA-70820/343863774_zpid/"}, {"id": "nr153", "address": "7844 Pisa Dr", "lat": 30.372676, "lon": -91.137206, "price": 2600, "beds": 3, "baths": 3, "sqft": 1824, "url": "https://www.zillow.com/homedetails/7844-Pisa-Dr-Baton-Rouge-LA-70820/338763114_zpid/"}, {"id": "nr154", "address": "1412 Alouette Dr", "lat": 30.3609222, "lon": -91.1341578, "price": 2500, "beds": 3, "baths": 2, "sqft": 1812, "url": "https://www.zillow.com/homedetails/1412-Alouette-Dr-Baton-Rouge-LA-70820/188801607_zpid/"}, {"id": "nr155", "address": "1418 Gardenia Ln", "lat": 30.363125, "lon": -91.1394591, "price": 2350, "beds": 3, "baths": 2, "sqft": 1812, "url": "https://www.zillow.com/homedetails/1418-Gardenia-Ln-Baton-Rouge-LA-70820/251968008_zpid/"}, {"id": "nr156", "address": "2933 Dayton St", "lat": 30.4882858, "lon": -91.1604018, "price": 1350, "beds": 4, "baths": 2, "sqft": 1800, "url": "https://www.zillow.com/homedetails/2933-Dayton-St-Baton-Rouge-LA-70805/66263102_zpid/"}, {"id": "nr157", "address": "7005 Whitlow Dr", "lat": 30.3861916, "lon": -91.1390541, "price": 2000, "beds": 3, "baths": 2, "sqft": 1800, "url": "https://www.zillow.com/homedetails/7005-Whitlow-Dr-Baton-Rouge-LA-70808/66287917_zpid/"}, {"id": "nr158", "address": "3087 Farrington Dr", "lat": 30.4784386, "lon": -91.0852692, "price": 1800, "beds": 3, "baths": 2, "sqft": 1795, "url": "https://www.zillow.com/homedetails/3087-Farrington-Dr-Baton-Rouge-LA-70814/66302674_zpid/"}, {"id": "nr159", "address": "5115 Woodlawn Ave", "lat": 30.5031437, "lon": -91.1396273, "price": 1550, "beds": 4, "baths": 2, "sqft": 1789, "url": "https://www.zillow.com/homedetails/5115-Woodlawn-Ave-Baton-Rouge-LA-70805/66251548_zpid/"}, {"id": "nr160", "address": "1274 Sharlo Ave", "lat": 30.3897705, "lon": -91.1827167, "price": 3155, "beds": 3, "baths": 2, "sqft": 1786, "url": "https://www.zillow.com/homedetails/1274-Sharlo-Ave-ID1519871P-Baton-Rouge-LA-70820/461726108_zpid/"}, {"id": "nr161", "address": "10157 Bonnet Cove Ave", "lat": 30.3564146, "lon": -91.1136587, "price": 1900, "beds": 3, "baths": 3, "sqft": 1785, "url": "https://www.zillow.com/homedetails/10157-Bonnet-Cove-Ave-Baton-Rouge-LA-70810/103862930_zpid/"}, {"id": "nr162", "address": "10144 The Grove Ave", "lat": 30.384925, "lon": -91.0810845, "price": 2250, "beds": 3, "baths": 3, "sqft": 1783, "url": "https://www.zillow.com/homedetails/10144-The-Grove-Ave-Baton-Rouge-LA-70836/450039821_zpid/"}, {"id": "nr163", "address": "8181 Brandon Dr", "lat": 30.4269319, "lon": -91.1018478, "price": 2000, "beds": 3, "baths": 2, "sqft": 1780, "url": "https://www.zillow.com/homedetails/8181-Brandon-Dr-Baton-Rouge-LA-70809/66365836_zpid/"}, {"id": "nr164", "address": "7735 N Jefferson Place Cir Suite D", "lat": 30.4220886, "lon": -91.105189, "price": 1662, "beds": 3, "baths": 3, "sqft": 1768, "url": "https://www.zillow.com/homedetails/7735-N-Jefferson-Place-Cir-SUITE-D-Baton-Rouge-LA-70809/462756330_zpid/"}, {"id": "nr165", "address": "4637 Burbank Dr", "lat": 30.3986237, "lon": -91.1712978, "price": 2495, "beds": 3, "baths": 3, "sqft": 1763, "url": "https://www.zillow.com/homedetails/4637-Burbank-Dr-APT-506-Baton-Rouge-LA-70820/108610309_zpid/"}, {"id": "nr166", "address": "755 Arlington Ave", "lat": 30.4418881, "lon": -91.1589089, "price": 2250, "beds": 4, "baths": 3, "sqft": 1760, "url": "https://www.zillow.com/homedetails/755-Arlington-Ave-Baton-Rouge-LA-70806/66276032_zpid/"}, {"id": "nr167", "address": "5629 Loranger Dr", "lat": 30.3957672, "lon": -91.0739858, "price": 1695, "beds": 3, "baths": 2, "sqft": 1754, "url": "https://www.zillow.com/homedetails/5629-Loranger-Dr-Baton-Rouge-LA-70809/66360061_zpid/"}, {"id": "nr168", "address": "9410 Vienna Ave", "lat": 30.3897058, "lon": -91.1043036, "price": 2000, "beds": 3, "baths": 3, "sqft": 1740, "url": "https://www.zillow.com/homedetails/9410-Vienna-Ave-Baton-Rouge-LA-70810/66293607_zpid/"}, {"id": "nr169", "address": "217 Lake Pride Dr", "lat": 30.3842207, "lon": -91.157107, "price": 2500, "beds": 3, "baths": 2, "sqft": 1735, "url": "https://www.zillow.com/homedetails/217-Lake-Pride-Dr-Baton-Rouge-LA-70820/251967624_zpid/"}, {"id": "nr170", "address": "2127 N 71st Ave", "lat": 30.5137126, "lon": -91.1705917, "price": 1600, "beds": 4, "baths": 2, "sqft": 1734, "url": "https://www.zillow.com/homedetails/2127-N-71st-Ave-Baton-Rouge-LA-70807/454966518_zpid/"}, {"id": "nr171", "address": "3044 Wilshire Dr", "lat": 30.446063, "lon": -91.1572007, "price": 2350, "beds": 3, "baths": 2, "sqft": 1734, "url": "https://www.zillow.com/homedetails/3044-Wilshire-Dr-Baton-Rouge-LA-70806/66290181_zpid/"}, {"id": "nr172", "address": "10408 Springtree Ave", "lat": 30.340267, "lon": -91.1116313, "price": 2600, "beds": 3, "baths": 2, "sqft": 1729, "url": "https://www.zillow.com/homedetails/10408-Springtree-Ave-Baton-Rouge-LA-70810/81890888_zpid/"}, {"id": "nr173", "address": "821 W Garfield St", "lat": 30.422231, "lon": -91.1861675, "price": 1195, "beds": 4, "baths": 2, "sqft": 1708, "url": "https://www.zillow.com/homedetails/821-W-Garfield-St-Baton-Rouge-LA-70802/66283150_zpid/"}, {"id": "nr174", "address": "1222 N Sabine Dr", "lat": 30.3797452, "lon": -91.1054394, "price": 1300, "beds": 3, "baths": 2, "sqft": 1700, "url": "https://www.zillow.com/homedetails/1222-N-Sabine-Dr-Baton-Rouge-LA-70810/66281999_zpid/"}, {"id": "nr175", "address": "2265 Glasgow Ave", "lat": 30.4144183, "lon": -91.1402807, "price": 2000, "beds": 2, "baths": 2, "sqft": 1700, "url": "https://www.zillow.com/homedetails/2265-Glasgow-Ave-Baton-Rouge-LA-70808/66285955_zpid/"}, {"id": "nr176", "address": "7030 Hooper Rd", "lat": 30.5267365, "lon": -91.1222266, "price": 1700, "beds": 3, "baths": 3, "sqft": 1700, "url": "https://www.zillow.com/homedetails/7030-Hooper-Rd-Baton-Rouge-LA-70811/66329521_zpid/"}, {"id": "nr177", "address": "8952 Boone Dr", "lat": 30.3764646, "lon": -91.117355, "price": 2300, "beds": 3, "baths": 2, "sqft": 1700, "url": "https://www.zillow.com/homedetails/8952-Boone-Dr-Baton-Rouge-LA-70810/66804647_zpid/"}, {"id": "nr178", "address": "9760 Judi Ave", "lat": 30.4377482, "lon": -91.0794201, "price": 1850, "beds": 3, "baths": 2, "sqft": 1692, "url": "https://www.zillow.com/homedetails/9760-Judi-Ave-Baton-Rouge-LA-70815/66315052_zpid/"}, {"id": "nr179", "address": "3324 Hollywood St", "lat": 30.4995944, "lon": -91.1567129, "price": 1600, "beds": 4, "baths": 2, "sqft": 1685, "url": "https://www.zillow.com/homedetails/3324-Hollywood-St-Baton-Rouge-LA-70805/66251863_zpid/"}, {"id": "nr180", "address": "10538 Springpark Ave", "lat": 30.3453251, "lon": -91.1127428, "price": 2145, "beds": 3, "baths": 2, "sqft": 1675, "url": "https://www.zillow.com/homedetails/10538-Springpark-Ave-Baton-Rouge-LA-70810/66340841_zpid/"}, {"id": "nr181", "address": "2271 Lee Dr", "lat": 30.4157255, "lon": -91.1438611, "price": 1650, "beds": 3, "baths": 2, "sqft": 1670, "url": "https://www.zillow.com/homedetails/2271-Lee-Dr-Baton-Rouge-LA-70808/66268852_zpid/"}, {"id": "nr182", "address": "9540 Lindale Ave", "lat": 30.4388368, "lon": -91.0853712, "price": 1900, "beds": 3, "baths": 3, "sqft": 1655, "url": "https://www.zillow.com/homedetails/9540-Lindale-Ave-A-Baton-Rouge-LA-70815/462229865_zpid/"}, {"id": "nr183", "address": "3411 San Felipe Dr", "lat": 30.4177165, "lon": -91.0925273, "price": 1500, "beds": 3, "baths": 3, "sqft": 1654, "url": "https://www.zillow.com/homedetails/3411-San-Felipe-Dr-Baton-Rouge-LA-70809/66378868_zpid/"}, {"id": "nr184", "address": "1217 Sharlo Ave", "lat": 30.3889519, "lon": -91.1848027, "price": 1600, "beds": 3, "baths": 3, "sqft": 1650, "url": "https://www.zillow.com/homedetails/1217-Sharlo-Ave-Baton-Rouge-LA-70820/66237827_zpid/"}, {"id": "nr185", "address": "157 Ocean Dr", "lat": 30.4505814, "lon": -91.1148662, "price": 1800, "beds": 3, "baths": 3, "sqft": 1650, "url": "https://www.zillow.com/homedetails/157-Ocean-Dr-157-Baton-Rouge-LA-70806/460927330_zpid/"}, {"id": "nr186", "address": "4625 Burbank Dr", "lat": 30.3988189, "lon": -91.1718209, "price": 1700, "beds": 3, "baths": 2, "sqft": 1650, "url": "https://www.zillow.com/homedetails/4625-Burbank-Dr-APT-504-Baton-Rouge-LA-70820/66801423_zpid/"}, {"id": "nr187", "address": "5390 Paige St", "lat": 30.5172079, "lon": -91.1367444, "price": 1500, "beds": 3, "baths": 3, "sqft": 1650, "url": "https://www.zillow.com/homedetails/5390-Paige-St-Baton-Rouge-LA-70811/247555343_zpid/"}, {"id": "nr188", "address": "7072 Kodiak Dr", "lat": 30.389756, "lon": -91.100769, "price": 3250, "beds": 3, "baths": 3, "sqft": 1650, "url": "https://www.zillow.com/homedetails/7072-Kodiak-Dr-Baton-Rouge-LA-70810/123624660_zpid/"}, {"id": "nr189", "address": "951 E Tom Stokes Ct", "lat": 30.3703306, "lon": -91.0823893, "price": 1850, "beds": 3, "baths": 2, "sqft": 1650, "url": "https://www.zillow.com/homedetails/951-E-Tom-Stokes-Ct-Baton-Rouge-LA-70810/66231632_zpid/"}, {"id": "nr190", "address": "2166 Silverest Ave", "lat": 30.4313477, "lon": -91.0725635, "price": 1800, "beds": 3, "baths": 2, "sqft": 1640, "url": "https://www.zillow.com/homedetails/2166-Silverest-Ave-Baton-Rouge-LA-70816/66313455_zpid/"}, {"id": "nr191", "address": "8027 Seville Ct", "lat": 30.3723655, "lon": -91.1353213, "price": 2295, "beds": 3, "baths": 2, "sqft": 1634, "url": "https://www.zillow.com/homedetails/8027-Seville-Ct-Baton-Rouge-LA-70820/188801060_zpid/"}, {"id": "nr192", "address": "508 Lake Breeze Dr", "lat": 30.3858918, "lon": -91.1611507, "price": 2400, "beds": 3, "baths": 2, "sqft": 1633, "url": "https://www.zillow.com/homedetails/508-Lake-Breeze-Dr-Baton-Rouge-LA-70820/317214913_zpid/"}, {"id": "nr193", "address": "9664 Creekview Dr", "lat": 30.38228, "lon": -91.07846, "price": 2200, "beds": 3, "baths": 2, "sqft": 1625, "url": "https://www.zillow.com/homedetails/9664-Creekview-Dr-Baton-Rouge-LA-70836/455212477_zpid/"}, {"id": "nr194", "address": "1023 Deer Pass Dr", "lat": 30.366436, "lon": -91.140768, "price": 2300, "beds": 3, "baths": 2, "sqft": 1613, "url": "https://www.zillow.com/homedetails/1023-Deer-Pass-Dr-Baton-Rouge-LA-70820/251967708_zpid/"}, {"id": "nr195", "address": "9441 Boone Dr", "lat": 30.3735586, "lon": -91.1107429, "price": 2050, "beds": 3, "baths": 2, "sqft": 1611, "url": "https://www.zillow.com/homedetails/9441-Boone-Dr-Baton-Rouge-LA-70810/66804678_zpid/"}, {"id": "nr196", "address": "9477 Macedonia Ave", "lat": 30.389594, "lon": -91.1034233, "price": 1950, "beds": 4, "baths": 2, "sqft": 1604, "url": "https://www.zillow.com/homedetails/9477-Macedonia-Ave-Baton-Rouge-LA-70810/66280613_zpid/"}, {"id": "nr197", "address": "10352 Hillmont Ave", "lat": 30.3431269, "lon": -91.1133621, "price": 2195, "beds": 3, "baths": 2, "sqft": 1603, "url": "https://www.zillow.com/homedetails/10352-Hillmont-Ave-Baton-Rouge-LA-70810/66803058_zpid/"}, {"id": "nr198", "address": "5648 Riverstone Dr -A", "lat": 30.3858701, "lon": -91.184194, "price": 1250, "beds": 2, "baths": 2, "sqft": 1603, "url": "https://www.zillow.com/homedetails/5648-Riverstone-Dr-94-A-Baton-Rouge-LA-70820/2071265684_zpid/"}, {"id": "nr199", "address": "7945 Seville Ct", "lat": 30.3729634, "lon": -91.1360106, "price": 2400, "beds": 3, "baths": 2, "sqft": 1602, "url": "https://www.zillow.com/homedetails/7945-Seville-Ct-Baton-Rouge-LA-70810/119325347_zpid/"}, {"id": "nr200", "address": "5030 Myrtle Trail Dr", "lat": 30.3929062, "lon": -91.2016859, "price": 2350, "beds": 2, "baths": 3, "sqft": 1601, "url": "https://www.zillow.com/homedetails/5030-Myrtle-Trail-Dr-Baton-Rouge-LA-70820/251949421_zpid/"}, {"id": "nr201", "address": "10224 Hillmont Ave", "lat": 30.3427241, "lon": -91.1148373, "price": 2095, "beds": 3, "baths": 2, "sqft": 1600, "url": "https://www.zillow.com/homedetails/10224-Hillmont-Ave-Baton-Rouge-LA-70810/66803066_zpid/"}, {"id": "nr202", "address": "1331 Knollhaven Dr", "lat": 30.3605051, "lon": -91.0629771, "price": 1825, "beds": 3, "baths": 2, "sqft": 1600, "url": "https://www.zillow.com/homedetails/1331-Knollhaven-Dr-Baton-Rouge-LA-70810/66370089_zpid/"}, {"id": "nr203", "address": "1444 Letitia St", "lat": 30.4353788, "lon": -91.1607018, "price": 2950, "beds": 3, "baths": 2, "sqft": 1600, "url": "https://www.zillow.com/homedetails/1444-Letitia-St-Baton-Rouge-LA-70808/66268079_zpid/"}, {"id": "nr204", "address": "2904 Wilshire Dr", "lat": 30.446033, "lon": -91.1584347, "price": 1800, "beds": 2, "baths": 2, "sqft": 1600, "url": "https://www.zillow.com/homedetails/2904-Wilshire-Dr-Baton-Rouge-LA-70806/66268934_zpid/"}, {"id": "nr205", "address": "3162 Greenwood Dr", "lat": 30.4254564, "lon": -91.1579625, "price": 1775, "beds": 2, "baths": 1, "sqft": 1600, "url": "https://www.zillow.com/homedetails/3162-Greenwood-Dr-Baton-Rouge-LA-70808/66276085_zpid/"}, {"id": "nr206", "address": "4236 Delaware St", "lat": 30.4885701, "lon": -91.1504111, "price": 1350, "beds": 3, "baths": 2, "sqft": 1600, "url": "https://www.zillow.com/homedetails/4236-Delaware-St-Baton-Rouge-LA-70805/66263413_zpid/"}, {"id": "nr207", "address": "4287 Poplar St", "lat": 30.4169197, "lon": -91.1463867, "price": 2400, "beds": 3, "baths": 2, "sqft": 1600, "url": "https://www.zillow.com/homedetails/4287-Poplar-St-Baton-Rouge-LA-70808/66297246_zpid/"}, {"id": "nr208", "address": "4615 Lorraine St", "lat": 30.4966465, "lon": -91.1438478, "price": 1450, "beds": 3, "baths": 3, "sqft": 1600, "url": "https://www.zillow.com/homedetails/4615-Lorraine-St-Baton-Rouge-LA-70805/66253869_zpid/"}, {"id": "nr209", "address": "6207 Casper St", "lat": 30.5056574, "lon": -91.1662241, "price": 1350, "beds": 3, "baths": 2, "sqft": 1600, "url": "https://www.zillow.com/homedetails/6207-Casper-St-Baton-Rouge-LA-70805/66250638_zpid/"}, {"id": "nr210", "address": "1427 Stilt St", "lat": 30.5269343, "lon": -91.1786668, "price": 1550, "beds": 3, "baths": 2, "sqft": 1598, "url": "https://www.zillow.com/homedetails/1427-Stilt-St-Baton-Rouge-LA-70807/66319728_zpid/"}, {"id": "nr211", "address": "10735 Erin Vale Ave", "lat": 30.3723988, "lon": -91.0936113, "price": 2100, "beds": 3, "baths": 2, "sqft": 1596, "url": "https://www.zillow.com/homedetails/10735-Erin-Vale-Ave-Baton-Rouge-LA-70810/66245176_zpid/"}, {"id": "nr212", "address": "9786 Kinglet Dr", "lat": 30.3844242, "lon": -91.0743348, "price": 1800, "beds": 3, "baths": 2, "sqft": 1589, "url": "https://www.zillow.com/homedetails/9786-Kinglet-Dr-Baton-Rouge-LA-70809/66372812_zpid/"}, {"id": "nr213", "address": "10004 Ole Millstead Ct", "lat": 30.430977, "lon": -91.077299, "price": 2050, "beds": 3, "baths": 2, "sqft": 1578, "url": "https://www.zillow.com/homedetails/10004-Ole-Millstead-Ct-Baton-Rouge-LA-70816/338763163_zpid/"}, {"id": "nr214", "address": "1741 Brightside Dr", "lat": 30.387714, "lon": -91.1774705, "price": 1600, "beds": 3, "baths": 2, "sqft": 1576, "url": "https://www.zillow.com/homedetails/1741-Brightside-Dr-APT-H4-Baton-Rouge-LA-70820/70845462_zpid/"}, {"id": "nr215", "address": "555 Ursuline Dr", "lat": 30.402694, "lon": -91.1638451, "price": 1800, "beds": 2, "baths": 2, "sqft": 1576, "url": "https://www.zillow.com/homedetails/555-Ursuline-Dr-Baton-Rouge-LA-70808/66268609_zpid/"}, {"id": "nr216", "address": "5704 Goodwood Crossing Ln", "lat": 30.444908, "lon": -91.13106, "price": 1900, "beds": 3, "baths": 3, "sqft": 1571, "url": "https://www.zillow.com/homedetails/5704-Goodwood-Crossing-Ln-Baton-Rouge-LA-70806/251954650_zpid/"}, {"id": "nr217", "address": "1415 Alouette Dr", "lat": 30.3607739, "lon": -91.1341019, "price": 2500, "beds": 3, "baths": 2, "sqft": 1566, "url": "https://www.zillow.com/homedetails/1415-Alouette-Dr-Baton-Rouge-LA-70820/188801725_zpid/"}, {"id": "nr218", "address": "13431 Briargrove Ave", "lat": 30.3596983, "lon": -91.074736, "price": 1900, "beds": 4, "baths": 2, "sqft": 1551, "url": "https://www.zillow.com/homedetails/13431-Briargrove-Ave-Baton-Rouge-LA-70810/66348479_zpid/"}, {"id": "nr219", "address": "10125 Springbrook Ave", "lat": 30.3466291, "lon": -91.117721, "price": 2300, "beds": 3, "baths": 2, "sqft": 1550, "url": "https://www.zillow.com/homedetails/10125-Springbrook-Ave-Baton-Rouge-LA-70810/66383511_zpid/"}, {"id": "nr220", "address": "2924 Nicholson Lake Dr", "lat": 30.3440062, "lon": -91.1330353, "price": 2000, "beds": 3, "baths": 2, "sqft": 1550, "url": "https://www.zillow.com/homedetails/2924-Nicholson-Lake-Dr-Baton-Rouge-LA-70810/66809016_zpid/"}, {"id": "nr221", "address": "5800 Imagination Pkwy", "lat": 30.46295, "lon": -91.13083, "price": 1211, "beds": 2, "baths": 2, "sqft": 1532, "url": "https://www.zillow.com/apartments/baton-rouge-la/cypress-at-ardendale/CqW8mJ/"}, {"id": "nr222", "address": "3906 S Barrow Dr", "lat": 30.4657492, "lon": -91.1512262, "price": 1295, "beds": 3, "baths": 2, "sqft": 1523, "url": "https://www.zillow.com/homedetails/3906-S-Barrow-Dr-Baton-Rouge-LA-70802/66239096_zpid/"}, {"id": "nr223", "address": "13344 Natchez Ct", "lat": 30.3616698, "lon": -91.0749817, "price": 2500, "beds": 3, "baths": 2, "sqft": 1521, "url": "https://www.zillow.com/homedetails/13344-Natchez-Ct-Baton-Rouge-LA-70810/66296338_zpid/"}, {"id": "nr224", "address": "3323 King Bradford Dr", "lat": 30.4225681, "lon": -91.009158, "price": 1300, "beds": 3, "baths": 2, "sqft": 1516, "url": "https://www.zillow.com/homedetails/3323-King-Bradford-Dr-Baton-Rouge-LA-70816/66378818_zpid/"}, {"id": "nr225", "address": "1955 Rice Dr", "lat": 30.4659541, "lon": -91.1477978, "price": 1600, "beds": 4, "baths": 2, "sqft": 1505, "url": "https://www.zillow.com/homedetails/1955-Rice-Dr-Baton-Rouge-LA-70802/66226360_zpid/"}, {"id": "nr226", "address": "676 Hadley Dr", "lat": 30.366256, "lon": -91.129459, "price": 1800, "beds": 3, "baths": 2, "sqft": 1504, "url": "https://www.zillow.com/homedetails/676-Hadley-Dr-Baton-Rouge-LA-70820/66253632_zpid/"}, {"id": "nr227", "address": "7080 Kodiak Dr", "lat": 30.389654, "lon": -91.100837, "price": 2600, "beds": 3, "baths": 3, "sqft": 1501, "url": "https://www.zillow.com/homedetails/7080-Kodiak-Dr-Baton-Rouge-LA-70810/247544071_zpid/"}, {"id": "nr228", "address": "1416 Quail Hollow Dr", "lat": 30.3597573, "lon": -91.0781372, "price": 2000, "beds": 3, "baths": 2, "sqft": 1500, "url": "https://www.zillow.com/homedetails/1416-Quail-Hollow-Dr-Baton-Rouge-LA-70810/66356928_zpid/"}, {"id": "nr229", "address": "2257 Balis Dr", "lat": 30.4281242, "lon": -91.1396946, "price": 2000, "beds": 4, "baths": 2, "sqft": 1500, "url": "https://www.zillow.com/homedetails/2257-Balis-Dr-Baton-Rouge-LA-70808/66270743_zpid/"}, {"id": "nr230", "address": "2411 Valley St", "lat": 30.4265982, "lon": -91.1446889, "price": 1500, "beds": 3, "baths": 2, "sqft": 1500, "url": "https://www.zillow.com/homedetails/2411-Valley-St-Baton-Rouge-LA-70808/66267585_zpid/"}, {"id": "nr231", "address": "303 Briarhaven Dr", "lat": 30.3588438, "lon": -91.1130489, "price": 1850, "beds": 3, "baths": 2, "sqft": 1500, "url": "https://www.zillow.com/homedetails/303-Briarhaven-Dr-Baton-Rouge-LA-70810/66295563_zpid/"}, {"id": "nr232", "address": "3486 Delaware St", "lat": 30.480534, "lon": -91.1495803, "price": 1500, "beds": 3, "baths": 2, "sqft": 1500, "url": "https://www.zillow.com/homedetails/3486-Delaware-St-Baton-Rouge-LA-70805/66252519_zpid/"}, {"id": "nr233", "address": "5212 Jackson Ave", "lat": 30.4669561, "lon": -91.1367904, "price": 1650, "beds": 4, "baths": 2, "sqft": 1500, "url": "https://www.zillow.com/homedetails/5212-Jackson-Ave-Baton-Rouge-LA-70806/66260621_zpid/"}, {"id": "nr234", "address": "5722 Goodwood Crossing Ln", "lat": 30.444919, "lon": -91.130817, "price": 2800, "beds": 3, "baths": 3, "sqft": 1500, "url": "https://www.zillow.com/homedetails/5722-Goodwood-Crossing-Ln-Baton-Rouge-LA-70806/251954863_zpid/"}, {"id": "nr235", "address": "603 Mayflower St", "lat": 30.4409092, "lon": -91.1843727, "price": 1850, "beds": 3, "baths": 2, "sqft": 1500, "url": "https://www.zillow.com/homedetails/603-Mayflower-St-Baton-Rouge-LA-70802/66241261_zpid/"}, {"id": "nr236", "address": "6221 Maplewood Dr", "lat": 30.5072385, "lon": -91.1287297, "price": 2560, "beds": 4, "baths": 2, "sqft": 1500, "url": "https://www.zillow.com/homedetails/6221-Maplewood-Dr-Baton-Rouge-LA-70812/66244308_zpid/"}, {"id": "nr237", "address": "8131 Sholar Dr", "lat": 30.41663, "lon": -91.1022922, "price": 2000, "beds": 3, "baths": 2, "sqft": 1500, "url": "https://www.zillow.com/homedetails/8131-Sholar-Dr-Baton-Rouge-LA-70809/66358027_zpid/"}, {"id": "nr238", "address": "4625 Burbank Dr", "lat": 30.3988189, "lon": -91.1718209, "price": 1695, "beds": 3, "baths": 2, "sqft": 1566, "url": "https://www.zillow.com/homedetails/4625-Burbank-Dr-APT-607-Baton-Rouge-LA-70820/66386799_zpid/"}, {"id": "nr239", "address": "5557 Arialo Dr", "lat": 30.3926948, "lon": -91.2037412, "price": 2150, "beds": 3, "baths": 2, "sqft": 1484, "url": "https://www.zillow.com/homedetails/5557-Arialo-Dr-Baton-Rouge-LA-70820/66383048_zpid/"}, {"id": "nr240", "address": "2645 Seneca St", "lat": 30.4714527, "lon": -91.161724, "price": 1550, "beds": 3, "baths": 2, "sqft": 1480, "url": "https://www.zillow.com/homedetails/2645-Seneca-St-Baton-Rouge-LA-70805/66250509_zpid/"}, {"id": "nr241", "address": "5157 Etta St -G", "lat": 30.3896638, "lon": -91.1701452, "price": 2050, "beds": 3, "baths": 2, "sqft": 1473, "url": "https://www.zillow.com/homedetails/5157-Etta-St-4-G-Baton-Rouge-LA-70820/66385546_zpid/"}, {"id": "nr242", "address": "8604 Abertay Ave", "lat": 30.3663341, "lon": -91.1320378, "price": 2400, "beds": 3, "baths": 2, "sqft": 1470, "url": "https://www.zillow.com/homedetails/8604-Abertay-Ave-Baton-Rouge-LA-70820/123203282_zpid/"}, {"id": "nr243", "address": "809 Summer Breeze Dr", "lat": 30.3592144, "lon": -91.1182207, "price": 1650, "beds": 3, "baths": 2, "sqft": 1469, "url": "https://www.zillow.com/homedetails/809-Summer-Breeze-Dr-APT-305-Baton-Rouge-LA-70810/81890050_zpid/"}, {"id": "nr244", "address": "5423B Banyan Trace Dr", "lat": 30.4985737, "lon": -91.1360779, "price": 1300, "beds": 4, "baths": 2, "sqft": 1469, "url": "https://www.zillow.com/homedetails/5423B-Banyan-Trace-Dr-Baton-Rouge-LA-70805/462537803_zpid/"}, {"id": "nr245", "address": "3111 Nicholson Lake Dr", "lat": 30.3424579, "lon": -91.1337659, "price": 2000, "beds": 3, "baths": 2, "sqft": 1468, "url": "https://www.zillow.com/homedetails/3111-Nicholson-Lake-Dr-Baton-Rouge-LA-70810/66808933_zpid/"}, {"id": "nr246", "address": "809 Summer Breeze Dr", "lat": 30.3592144, "lon": -91.1182207, "price": 1650, "beds": 3, "baths": 2, "sqft": 1467, "url": "https://www.zillow.com/homedetails/809-Summer-Breeze-Dr-APT-903-Baton-Rouge-LA-70810/81893902_zpid/"}, {"id": "nr247", "address": "5255 Astoria Dr", "lat": 30.4981997, "lon": -91.1173811, "price": 1250, "beds": 3, "baths": 2, "sqft": 1463, "url": "https://www.zillow.com/homedetails/5255-Astoria-Dr-Baton-Rouge-LA-70812/247040089_zpid/"}, {"id": "nr248", "address": "1775 Stafford Dr", "lat": 30.3622379, "lon": -91.0710791, "price": 1900, "beds": 3, "baths": 2, "sqft": 1462, "url": "https://www.zillow.com/homedetails/1775-Stafford-Dr-Baton-Rouge-LA-70810/66363375_zpid/"}, {"id": "nr249", "address": "9925 Jefferson Hwy", "lat": 30.4099284, "lon": -91.0734979, "price": 1900, "beds": 2, "baths": 3, "sqft": 1458, "url": "https://www.zillow.com/homedetails/9925-Jefferson-Hwy-Baton-Rouge-LA-70809/66229891_zpid/"}, {"id": "nr250", "address": "7725 N Jefferson Place Cir", "lat": 30.4219721, "lon": -91.1052988, "price": 1562, "beds": 3, "baths": 2, "sqft": 1456, "url": "https://www.zillow.com/homedetails/7725-N-Jefferson-Place-Cir-APT-C-Baton-Rouge-LA-70809/462844890_zpid/"}, {"id": "nr251", "address": "292 Halfway Tree Rd", "lat": 30.370001, "lon": -91.1178768, "price": 2200, "beds": 3, "baths": 2, "sqft": 1454, "url": "https://www.zillow.com/homedetails/292-Halfway-Tree-Rd-Baton-Rouge-LA-70810/66295334_zpid/"}, {"id": "nr252", "address": "8335 Summa Ave", "lat": 30.3987266, "lon": -91.0997942, "price": 1700, "beds": 3, "baths": 2, "sqft": 1450, "url": "https://www.zillow.com/homedetails/8335-Summa-Ave-APT-H4-Baton-Rouge-LA-70809/2079636446_zpid/"}, {"id": "nr253", "address": "7910 Bayou Fountain Ave", "lat": 30.3639558, "lon": -91.1282454, "price": 1595, "beds": 3, "baths": 2, "sqft": 1450, "url": "https://www.zillow.com/homedetails/7910-Bayou-Fountain-Ave-Baton-Rouge-LA-70820/66254212_zpid/"}, {"id": "nr254", "address": "8271 Bayou Fountain Ave", "lat": 30.3624959, "lon": -91.1248629, "price": 1400, "beds": 3, "baths": 2, "sqft": 1450, "url": "https://www.zillow.com/apartments/baton-rouge-la/b-8271-bf/5Xth8w/"}, {"id": "nr255", "address": "7847 Bles Ave", "lat": 30.3917561, "lon": -91.1078775, "price": 1250, "beds": 3, "baths": 2, "sqft": 1450, "url": "https://www.zillow.com/homedetails/7847-Bles-Ave-2-Baton-Rouge-LA-70810/448597859_zpid/"}, {"id": "nr256", "address": "2009 Olive St", "lat": 30.4394764, "lon": -91.1676724, "price": 2050, "beds": 3, "baths": 1, "sqft": 1441, "url": "https://www.zillow.com/homedetails/2009-Olive-St-Baton-Rouge-LA-70806/66245780_zpid/"}, {"id": "nr257", "address": "5293 Brightside View Dr", "lat": 30.3859805, "lon": -91.181282, "price": 1195, "beds": 3, "baths": 2, "sqft": 1433, "url": "https://www.zillow.com/homedetails/5293-Brightside-View-Dr-1-Baton-Rouge-LA-70820/2054756879_zpid/"}, {"id": "nr258", "address": "10093 Jefferson Hwy", "lat": 30.4096739, "lon": -91.0713002, "price": 2495, "beds": 2, "baths": 2, "sqft": 1430, "url": "https://www.zillow.com/homedetails/10093-Jefferson-Hwy-Baton-Rouge-LA-70809/66359323_zpid/"}, {"id": "nr259", "address": "8500 Bluebonnet Blvd", "lat": 30.371781, "lon": -91.100735, "price": 1600, "beds": 3, "baths": 2, "sqft": 1430, "url": "https://www.zillow.com/homedetails/8500-Bluebonnet-Blvd-APT-24-Baton-Rouge-LA-70810/66317339_zpid/"}, {"id": "nr260", "address": "239 West Dr", "lat": 30.446864, "lon": -91.1518269, "price": 1250, "beds": 2, "baths": 1, "sqft": 1428, "url": "https://www.zillow.com/homedetails/239-West-Dr-Baton-Rouge-LA-70806/66278440_zpid/"}, {"id": "nr261", "address": "560 Staring Ln", "lat": 30.3758765, "lon": -91.1186145, "price": 1750, "beds": 3, "baths": 2, "sqft": 1423, "url": "https://www.zillow.com/homedetails/560-Staring-Ln-Baton-Rouge-LA-70810/66296585_zpid/"}, {"id": "nr262", "address": "343 S Fairfax Dr", "lat": 30.4475394, "lon": -91.1328318, "price": 1700, "beds": 4, "baths": 2, "sqft": 1421, "url": "https://www.zillow.com/homedetails/343-S-Fairfax-Dr-Baton-Rouge-LA-70806/66275810_zpid/"}, {"id": "nr263", "address": "4760 Perkins Rd", "lat": 30.415213, "lon": -91.1405107, "price": 1650, "beds": 3, "baths": 1, "sqft": 1419, "url": "https://www.zillow.com/homedetails/Baton-Rouge-LA-70808/66277184_zpid/"}, {"id": "nr264", "address": "1945 77th Ave", "lat": 30.5176879, "lon": -91.1722452, "price": 1650, "beds": 3, "baths": 2, "sqft": 1416, "url": "https://www.zillow.com/homedetails/1945-77th-Ave-Baton-Rouge-LA-70807/66254484_zpid/"}, {"id": "nr265", "address": "7854 W Pelican Lakes Ave", "lat": 30.3625423, "lon": -91.1380095, "price": 1950, "beds": 3, "baths": 2, "sqft": 1407, "url": "https://www.zillow.com/homedetails/7854-W-Pelican-Lakes-Ave-Baton-Rouge-LA-70820/247555390_zpid/"}, {"id": "nr266", "address": "9173 Cedar Ct", "lat": 30.5043233, "lon": -91.0941637, "price": 1596, "beds": 4, "baths": 2, "sqft": 1405, "url": "https://www.zillow.com/homedetails/9173-Cedar-Ct-Baton-Rouge-LA-70812/104463599_zpid/"}, {"id": "nr267", "address": "219 Westmoreland Dr", "lat": 30.4470527, "lon": -91.1537407, "price": 1700, "beds": 2, "baths": 2, "sqft": 1400, "url": "https://www.zillow.com/homedetails/219-Westmoreland-Dr-Baton-Rouge-LA-70806/66265774_zpid/"}, {"id": "nr268", "address": "6220 Calion Dr", "lat": 30.5088092, "lon": -91.1130085, "price": 1600, "beds": 4, "baths": 2, "sqft": 1400, "url": "https://www.zillow.com/homedetails/6220-Calion-Dr-Baton-Rouge-LA-70812/66322427_zpid/"}, {"id": "nr269", "address": "8262 Governor Dr", "lat": 30.3627424, "lon": -91.1242327, "price": 1400, "beds": 3, "baths": 3, "sqft": 1400, "url": "https://www.zillow.com/apartments/baton-rouge-la/c-8262-gv/5XqJ8Q/"}, {"id": "nr270", "address": "2537 Main St", "lat": 30.4522504, "lon": -91.1624986, "price": 1300, "beds": 3, "baths": 1, "sqft": 1400, "url": "https://www.zillow.com/homedetails/2537-Main-St-Baton-Rouge-LA-70802/188701210_zpid/"}, {"id": "nr271", "address": "3567 Charles St", "lat": 30.4815874, "lon": -91.1542008, "price": 1250, "beds": 3, "baths": 1, "sqft": 1400, "url": "https://www.zillow.com/homedetails/3567-Charles-St-Baton-Rouge-LA-70805/66261452_zpid/"}, {"id": "nr272", "address": "2654 Sheldon Dr", "lat": 30.4728167, "lon": -91.1248758, "price": 1200, "beds": 3, "baths": 1, "sqft": 1400, "url": "https://www.zillow.com/homedetails/2654-Sheldon-Dr-Baton-Rouge-LA-70805/66260168_zpid/"}, {"id": "nr273", "address": "470 W McKinley St", "lat": 30.4237926, "lon": -91.1823603, "price": 1200, "beds": 3, "baths": 1, "sqft": 1400, "url": "https://www.zillow.com/homedetails/470-W-McKinley-St-Baton-Rouge-LA-70802/66296172_zpid/"}, {"id": "nr274", "address": "5312 Packard St", "lat": 30.5188181, "lon": -91.1380145, "price": 1150, "beds": 4, "baths": 3, "sqft": 1400, "url": "https://www.zillow.com/homedetails/5312-Packard-St-Baton-Rouge-LA-70811/66318830_zpid/"}, {"id": "nr275", "address": "6918 Goya Ave", "lat": 30.459095, "lon": -91.1198045, "price": 1685, "beds": 3, "baths": 2, "sqft": 1398, "url": "https://www.zillow.com/homedetails/6918-Goya-Ave-1-Baton-Rouge-LA-70806/458931607_zpid/"}, {"id": "nr276", "address": "1499 S Peck Dr", "lat": 30.3587183, "lon": -91.0726666, "price": 2300, "beds": 4, "baths": 2, "sqft": 1385, "url": "https://www.zillow.com/homedetails/1499-S-Peck-Dr-Baton-Rouge-LA-70810/66353634_zpid/"}, {"id": "nr277", "address": "2173 Plantation Ln", "lat": 30.3856839, "lon": -91.1830547, "price": 1200, "beds": 2, "baths": 2, "sqft": 1374, "url": "https://www.zillow.com/homedetails/2173-Plantation-Ln-Baton-Rouge-LA-70820/66808620_zpid/"}, {"id": "nr278", "address": "5315 McClelland Dr", "lat": 30.4980776, "lon": -91.1352055, "price": 1000, "beds": 3, "baths": 2, "sqft": 1369, "url": "https://www.zillow.com/homedetails/5315-McClelland-Dr-Baton-Rouge-LA-70805/70846904_zpid/"}, {"id": "nr279", "address": "10224 Darryl Dr", "lat": 30.4707872, "lon": -91.0703827, "price": 1510, "beds": 3, "baths": 1, "sqft": 1368, "url": "https://www.zillow.com/homedetails/10224-Darryl-Dr-Baton-Rouge-LA-70815/66304167_zpid/"}, {"id": "nr280", "address": "4630 Southpark Dr", "lat": 30.4087146, "lon": -91.0590726, "price": 1400, "beds": 3, "baths": 2, "sqft": 1364, "url": "https://www.zillow.com/homedetails/4630-Southpark-Dr-Baton-Rouge-LA-70816/81891526_zpid/"}, {"id": "nr281", "address": "1606 College Dr", "lat": 30.434194, "lon": -91.1347457, "price": 2000, "beds": 2, "baths": 2, "sqft": 1363, "url": "https://www.zillow.com/homedetails/1606-College-Dr-Baton-Rouge-LA-70808/66268196_zpid/"}, {"id": "nr282", "address": "240 Meadow Bend Dr", "lat": 30.3693878, "lon": -91.1270556, "price": 1800, "beds": 3, "baths": 2, "sqft": 1360, "url": "https://www.zillow.com/homedetails/240-Meadow-Bend-Dr-Baton-Rouge-LA-70820/66284615_zpid/"}, {"id": "nr283", "address": "626 Jennifer Jean Dr", "lat": 30.3992945, "lon": -91.1753632, "price": 1500, "beds": 3, "baths": 2, "sqft": 1360, "url": "https://www.zillow.com/homedetails/626-Jennifer-Jean-Dr-Baton-Rouge-LA-70808/66289956_zpid/"}, {"id": "nr284", "address": "1138 Brookhollow Dr", "lat": 30.3585349, "lon": -91.062865, "price": 1825, "beds": 3, "baths": 2, "sqft": 1350, "url": "https://www.zillow.com/homedetails/1138-Brookhollow-Dr-Baton-Rouge-LA-70810/66370063_zpid/"}, {"id": "nr285", "address": "9001 Cedar Ct", "lat": 30.5028538, "lon": -91.095131, "price": 1431, "beds": 3, "baths": 2, "sqft": 1350, "url": "https://www.zillow.com/homedetails/9001-Cedar-Ct-Baton-Rouge-LA-70812/104463618_zpid/"}, {"id": "nr286", "address": "5268 Brightside View Dr", "lat": 30.386107, "lon": -91.1813925, "price": 1250, "beds": 3, "baths": 3, "sqft": 1348, "url": "https://www.zillow.com/homedetails/5268-Brightside-View-Dr-2-Baton-Rouge-LA-70820/461296653_zpid/"}, {"id": "nr287", "address": "453 Winterhaven Dr", "lat": 30.356511, "lon": -91.111892, "price": 1600, "beds": 3, "baths": 2, "sqft": 1329, "url": "https://www.zillow.com/homedetails/453-Winterhaven-Dr-Baton-Rouge-LA-70810/66295483_zpid/"}, {"id": "nr288", "address": "4913 Kennesaw Dr", "lat": 30.4059791, "lon": -91.0028572, "price": 1350, "beds": 3, "baths": 2, "sqft": 1320, "url": "https://www.zillow.com/homedetails/4913-Kennesaw-Dr-Baton-Rouge-LA-70817/66235378_zpid/"}, {"id": "nr289", "address": "13536 Goodwood Blvd", "lat": 30.4485529, "lon": -91.0343285, "price": 1450, "beds": 3, "baths": 2, "sqft": 1315, "url": "https://www.zillow.com/homedetails/13536-Goodwood-Blvd-13536-Baton-Rouge-LA-70815/462711268_zpid/"}, {"id": "nr290", "address": "8614 Forestwood Ave", "lat": 30.5082542, "lon": -91.0992489, "price": 1700, "beds": 3, "baths": 2, "sqft": 1313, "url": "https://www.zillow.com/homedetails/8614-Forestwood-Ave-Baton-Rouge-LA-70812/251067441_zpid/"}, {"id": "nr291", "address": "342 E State St", "lat": 30.419005, "lon": -91.1738843, "price": 1600, "beds": 2, "baths": 2, "sqft": 1308, "url": "https://www.zillow.com/homedetails/342-E-State-St-Baton-Rouge-LA-70802/66282007_zpid/"}, {"id": "nr292", "address": "422 Glenmore Ave", "lat": 30.4452095, "lon": -91.1463065, "price": 1700, "beds": 3, "baths": 2, "sqft": 1307, "url": "https://www.zillow.com/homedetails/422-Glenmore-Ave-Baton-Rouge-LA-70806/66281146_zpid/"}, {"id": "nr293", "address": "3285 Ozark St", "lat": 30.4791947, "lon": -91.1567808, "price": 1100, "beds": 3, "baths": 2, "sqft": 1306, "url": "https://www.zillow.com/homedetails/3285-Ozark-St-Baton-Rouge-LA-70805/66241719_zpid/"}, {"id": "nr294", "address": "Undisclosed Address [Zillow 66278786]", "lat": 30.388815, "lon": -91.10182, "price": 3100, "beds": 3, "baths": 2, "sqft": 1302, "url": "https://www.zillow.com/homedetails/Baton-Rouge-LA-70810/66278786_zpid/"}, {"id": "nr295", "address": "1522 Stephens Ave", "lat": 30.4114941, "lon": -91.1531927, "price": 1800, "beds": 2, "baths": 1, "sqft": 1302, "url": "https://www.zillow.com/homedetails/1522-Stephens-Ave-A-Baton-Rouge-LA-70808/462478811_zpid/"}, {"id": "nr296", "address": "3101 Highland Rd", "lat": 30.420466, "lon": -91.1775085, "price": 4734, "beds": 3, "baths": 2, "sqft": 1300, "url": "https://www.zillow.com/homedetails/Baton-Rouge-LA-70802/66805063_zpid/"}, {"id": "nr297", "address": "333 E Boyd Dr", "lat": 30.4018313, "lon": -91.1740479, "price": 3000, "beds": 3, "baths": 3, "sqft": 1300, "url": "https://www.zillow.com/homedetails/333-E-Boyd-Dr-16-Baton-Rouge-LA-70808/121249661_zpid/"}, {"id": "nr298", "address": "8726 Elvin Dr", "lat": 30.351405, "lon": -91.120181, "price": 1800, "beds": 2, "baths": 2, "sqft": 1300, "url": "https://www.zillow.com/homedetails/8726-Elvin-Dr-B-Baton-Rouge-LA-70810/2077776845_zpid/"}, {"id": "nr299", "address": "3634 Capital Heights Ave", "lat": 30.4422151, "lon": -91.1520648, "price": 1795, "beds": 2, "baths": 2, "sqft": 1300, "url": "https://www.zillow.com/homedetails/3634-Capital-Heights-Ave-Baton-Rouge-LA-70806/66272718_zpid/"}, {"id": "nr300", "address": "1240 Aberdeen Ave", "lat": 30.4085872, "lon": -91.153971, "price": 1750, "beds": 3, "baths": 1, "sqft": 1300, "url": "https://www.zillow.com/homedetails/1240-Aberdeen-Ave-Baton-Rouge-LA-70808/66278598_zpid/"}, {"id": "nr301", "address": "637 Iberville St", "lat": 30.4423296, "lon": -91.175014, "price": 1500, "beds": 3, "baths": 2, "sqft": 1300, "url": "https://www.zillow.com/homedetails/637-Iberville-St-A-Baton-Rouge-LA-70802/456077847_zpid/"}, {"id": "nr302", "address": "1336 N 29th St", "lat": 30.4606091, "lon": -91.1597029, "price": 1450, "beds": 3, "baths": 2, "sqft": 1300, "url": "https://www.zillow.com/homedetails/1336-N-29th-St-Baton-Rouge-LA-70802/66238015_zpid/"}, {"id": "nr303", "address": "333 S Acadian Thruway", "lat": 30.445818, "lon": -91.1546901, "price": 1250, "beds": 2, "baths": 1, "sqft": 1300, "url": "https://www.zillow.com/homedetails/333-S-Acadian-Thruway-333-Baton-Rouge-LA-70806/456135043_zpid/"}, {"id": "nr304", "address": "4225 Sycamore St", "lat": 30.4948109, "lon": -91.1475903, "price": 1200, "beds": 3, "baths": 1, "sqft": 1300, "url": "https://www.zillow.com/homedetails/4225-Sycamore-St-Baton-Rouge-LA-70805/66251876_zpid/"}, {"id": "nr305", "address": "3648 Evangeline St", "lat": 30.4927137, "lon": -91.1532446, "price": 1000, "beds": 2, "baths": 1, "sqft": 1300, "url": "https://www.zillow.com/homedetails/3648-Evangeline-St-Baton-Rouge-LA-70805/66248577_zpid/"}, {"id": "nr306", "address": "118888 Old Hammond Hwy", "lat": 30.44021, "lon": -91.045995, "price": 1250, "beds": 3, "baths": 2, "sqft": 1296, "url": "https://www.zillow.com/homedetails/118888-Old-Hammond-Hwy-Baton-Rouge-LA-70816/450169123_zpid/"}, {"id": "nr307", "address": "344 Burgess Pl", "lat": 30.4552174, "lon": -91.0595341, "price": 1675, "beds": 3, "baths": 2, "sqft": 1295, "url": "https://www.zillow.com/homedetails/344-Burgess-Pl-Baton-Rouge-LA-70815/66301709_zpid/"}, {"id": "nr308", "address": "802 S 18th St", "lat": 30.4406808, "lon": -91.1702792, "price": 1690, "beds": 3, "baths": 2, "sqft": 1293, "url": "https://www.zillow.com/homedetails/802-S-18th-St-Baton-Rouge-LA-70802/66235562_zpid/"}, {"id": "nr309", "address": "2013 Amir Dr", "lat": 30.4393237, "lon": -91.0101996, "price": 975, "beds": 2, "baths": 3, "sqft": 1292, "url": "https://www.zillow.com/homedetails/2013-Amir-Dr-Baton-Rouge-LA-70816/2067089909_zpid/"}, {"id": "nr310", "address": "9250 Pecan Tree Dr", "lat": 30.3543347, "lon": -91.1172285, "price": 1650, "beds": 3, "baths": 2, "sqft": 1291, "url": "https://www.zillow.com/homedetails/9250-Pecan-Tree-Dr-Baton-Rouge-LA-70810/66232598_zpid/"}, {"id": "nr311", "address": "3335 Hollywood St", "lat": 30.4997114, "lon": -91.1566111, "price": 1150, "beds": 3, "baths": 1, "sqft": 1290, "url": "https://www.zillow.com/homedetails/3335-Hollywood-St-Baton-Rouge-LA-70805/66241746_zpid/"}, {"id": "nr312", "address": "3547 Mission Dr", "lat": 30.4810526, "lon": -91.1452645, "price": 1600, "beds": 4, "baths": 2, "sqft": 1285, "url": "https://www.zillow.com/homedetails/3547-Mission-Dr-Baton-Rouge-LA-70805/66258267_zpid/"}, {"id": "nr313", "address": "824 Highland Park Dr", "lat": 30.38636, "lon": -91.13514, "price": 2200, "beds": 3, "baths": 2, "sqft": 1283, "url": "https://www.zillow.com/homedetails/824-Highland-Park-Dr-Baton-Rouge-LA-70808/66298766_zpid/"}, {"id": "nr314", "address": "7915 Jefferson Place Blvd", "lat": 30.4216482, "lon": -91.103887, "price": 1400, "beds": 2, "baths": 2, "sqft": 1278, "url": "https://www.zillow.com/homedetails/7915-Jefferson-Place-Blvd-APT-D-Baton-Rouge-LA-70809/458628347_zpid/"}, {"id": "nr315", "address": "7975 Jefferson Place Blvd", "lat": 30.4225541, "lon": -91.1035731, "price": 1275, "beds": 2, "baths": 2, "sqft": 1278, "url": "https://www.zillow.com/b/jefferson-place-condominiums-baton-rouge-la-5Xhw6Y/"}, {"id": "nr316", "address": "8447 S Parkland Dr", "lat": 30.4485624, "lon": -91.0991958, "price": 1687, "beds": 3, "baths": 2, "sqft": 1277, "url": "https://www.zillow.com/homedetails/8447-S-Parkland-Dr-Baton-Rouge-LA-70806/66278834_zpid/"}, {"id": "nr317", "address": "3232 King Bradford Dr", "lat": 30.423562, "lon": -91.0100122, "price": 1000, "beds": 3, "baths": 2, "sqft": 1275, "url": "https://www.zillow.com/homedetails/3232-King-Bradford-Dr-APT-4-Baton-Rouge-LA-70816/2110064885_zpid/"}, {"id": "nr318", "address": "2614 Citadel Dr", "lat": 30.4281768, "lon": -91.0546715, "price": 1500, "beds": 3, "baths": 2, "sqft": 1273, "url": "https://www.zillow.com/homedetails/2614-Citadel-Dr-Baton-Rouge-LA-70816/66308794_zpid/"}, {"id": "nr319", "address": "5337 Beechwood Dr", "lat": 30.4979338, "lon": -91.1442388, "price": 1350, "beds": 3, "baths": 1, "sqft": 1272, "url": "https://www.zillow.com/homedetails/5337-Beechwood-Dr-Baton-Rouge-LA-70805/66254552_zpid/"}, {"id": "nr320", "address": "1983 S Brightside View Dr", "lat": 30.3857638, "lon": -91.1811461, "price": 1100, "beds": 2, "baths": 2, "sqft": 1270, "url": "https://www.zillow.com/homedetails/1983-S-Brightside-View-Dr-APT-A-Baton-Rouge-LA-70820/66255505_zpid/"}, {"id": "nr321", "address": "1983 S Brightside View Dr", "lat": 30.3857638, "lon": -91.1811461, "price": 1100, "beds": 2, "baths": 2, "sqft": 1270, "url": "https://www.zillow.com/homedetails/1983-S-Brightside-View-Dr-Baton-Rouge-LA-70820/2079885412_zpid/"}, {"id": "nr322", "address": "305 Saint Thomas Ln", "lat": 30.446076, "lon": -91.130744, "price": 2200, "beds": 2, "baths": 2, "sqft": 1268, "url": "https://www.zillow.com/homedetails/305-Saint-Thomas-Ln-Baton-Rouge-LA-70806/251954866_zpid/"}, {"id": "nr323", "address": "1666 N Rosedale Dr", "lat": 30.4636265, "lon": -91.0530728, "price": 1400, "beds": 3, "baths": 2, "sqft": 1266, "url": "https://www.zillow.com/homedetails/1666-N-Rosedale-Dr-Baton-Rouge-LA-70815/66311003_zpid/"}, {"id": "nr324", "address": "9849 Siegen Ln", "lat": 30.359348, "lon": -91.0797996, "price": 1575, "beds": 2, "baths": 3, "sqft": 1260, "url": "https://www.zillow.com/homedetails/9849-Siegen-Ln-Baton-Rouge-LA-70810/66236109_zpid/"}, {"id": "nr325", "address": "141 E Boyd Dr", "lat": 30.4032532, "lon": -91.172572, "price": 1300, "beds": 2, "baths": 2, "sqft": 1255, "url": "https://www.zillow.com/homedetails/141-E-Boyd-Dr-APT-307-Baton-Rouge-LA-70808/66276896_zpid/"}, {"id": "nr326", "address": "8082 Sholar Dr", "lat": 30.416533, "lon": -91.1031498, "price": 1650, "beds": 3, "baths": 2, "sqft": 1254, "url": "https://www.zillow.com/homedetails/8082-Sholar-Dr-Baton-Rouge-LA-70809/66346365_zpid/"}, {"id": "nr327", "address": "11649 Sewanee Dr", "lat": 30.4282808, "lon": -91.0522465, "price": 1250, "beds": 3, "baths": 1, "sqft": 1251, "url": "https://www.zillow.com/homedetails/11649-Sewanee-Dr-Baton-Rouge-LA-70816/66304158_zpid/"}, {"id": "nr328", "address": "9507 Thayer Ave", "lat": 30.3854961, "lon": -91.1052925, "price": 2400, "beds": 3, "baths": 2, "sqft": 1250, "url": "https://www.zillow.com/homedetails/9507-Thayer-Ave-Baton-Rouge-LA-70810/317230595_zpid/"}, {"id": "nr329", "address": "1753 Mast Dr", "lat": 30.3563367, "lon": -91.1335108, "price": 1200, "beds": 3, "baths": 3, "sqft": 1250, "url": "https://www.zillow.com/apartments/baton-rouge-la/dm-1753-mast/5XtdQk/"}, {"id": "nr330", "address": "8231 Bayou Fountain Ave", "lat": 30.3626614, "lon": -91.1252349, "price": 1200, "beds": 2, "baths": 2, "sqft": 1250, "url": "https://www.zillow.com/apartments/baton-rouge-la/b-8231-bf/5XmvRF/"}, {"id": "nr331", "address": "2011 S Brightside View Dr", "lat": 30.385807, "lon": -91.1815165, "price": 1175, "beds": 2, "baths": 3, "sqft": 1250, "url": "https://www.zillow.com/homedetails/2011-S-Brightside-View-Dr-APT-E-Baton-Rouge-LA-70820/2062942694_zpid/"}, {"id": "nr332", "address": "4322 Rue De Belle Amie", "lat": 30.4099456, "lon": -91.0751328, "price": 1175, "beds": 2, "baths": 2, "sqft": 1250, "url": "https://www.zillow.com/homedetails/4322-Rue-De-Belle-Amie-4-Baton-Rouge-LA-70809/447483040_zpid/"}, {"id": "nr333", "address": "155 Marilyn Dr", "lat": 30.4547637, "lon": -91.0768304, "price": 1050, "beds": 2, "baths": 3, "sqft": 1250, "url": "https://www.zillow.com/homedetails/155-Marilyn-Dr-APT-42D-Baton-Rouge-LA-70815/66249752_zpid/"}, {"id": "nr334", "address": "1346 Jade Ave", "lat": 30.3559901, "lon": -91.1227564, "price": 1000, "beds": 2, "baths": 2, "sqft": 1250, "url": "https://www.zillow.com/apartments/baton-rouge-la/g-1346-jade-ave/9Jth8j/"}, {"id": "nr335", "address": "10878 Sullivan Rd", "lat": 30.546115, "lon": -91.0292171, "price": 950, "beds": 2, "baths": 3, "sqft": 1250, "url": "https://www.zillow.com/homedetails/10878-Sullivan-Rd-1G-Baton-Rouge-LA-70818/462781837_zpid/"}, {"id": "nr336", "address": "13640 Kenner Ave", "lat": 30.3667193, "lon": -91.0659497, "price": 950, "beds": 2, "baths": 3, "sqft": 1250, "url": "https://www.zillow.com/homedetails/13640-Kenner-Ave-APT-B-Baton-Rouge-LA-70810/66281563_zpid/"}, {"id": "nr337", "address": "2452 Brightside Dr", "lat": 30.388778, "lon": -91.1858612, "price": 1600, "beds": 2, "baths": 2, "sqft": 1246, "url": "https://www.zillow.com/homedetails/2452-Brightside-Dr-Baton-Rouge-LA-70820/66374209_zpid/"}, {"id": "nr338", "address": "10426 Jefferson Hwy", "lat": 30.4086367, "lon": -91.0671028, "price": 1300, "beds": 2, "baths": 2, "sqft": 1240, "url": "https://www.zillow.com/homedetails/10426-Jefferson-Hwy-APT-H-Baton-Rouge-LA-70809/2071256639_zpid/"}, {"id": "nr339", "address": "5515 Paige St", "lat": 30.5173626, "lon": -91.1356369, "price": 1400, "beds": 3, "baths": 3, "sqft": 1238, "url": "https://www.zillow.com/homedetails/5515-Paige-St-Baton-Rouge-LA-70811/251954758_zpid/"}, {"id": "nr340", "address": "981 Ridgepoint Ct", "lat": 30.3684522, "lon": -91.1017492, "price": 1750, "beds": 2, "baths": 3, "sqft": 1236, "url": "https://www.zillow.com/homedetails/981-Ridgepoint-Ct-Baton-Rouge-LA-70810/66233448_zpid/"}, {"id": "nr341", "address": "8912 Pecan Tree Dr", "lat": 30.3523136, "lon": -91.1184183, "price": 1575, "beds": 3, "baths": 2, "sqft": 1219, "url": "https://www.zillow.com/homedetails/8912-Pecan-Tree-Dr-8912-Baton-Rouge-LA-70810/2067086038_zpid/"}, {"id": "nr342", "address": "1953 S Brightside View Dr", "lat": 30.3857255, "lon": -91.1808271, "price": 1300, "beds": 2, "baths": 3, "sqft": 1218, "url": "https://www.zillow.com/homedetails/1953-S-Brightside-View-Dr-APT-B-Baton-Rouge-LA-70820/2078088933_zpid/"}, {"id": "nr343", "address": "905 N 17th St", "lat": 30.4562574, "lon": -91.1721551, "price": 1750, "beds": 3, "baths": 2, "sqft": 1217, "url": "https://www.zillow.com/homedetails/905-N-17th-St-Baton-Rouge-LA-70802/333206539_zpid/"}, {"id": "nr344", "address": "2210 Christian St", "lat": 30.4244567, "lon": -91.1597132, "price": 1600, "beds": 2, "baths": 3, "sqft": 1212, "url": "https://www.zillow.com/homedetails/2210-Christian-St-APT-11-Baton-Rouge-LA-70808/66301842_zpid/"}, {"id": "nr345", "address": "1505 Stanford Ave", "lat": 30.413634, "lon": -91.1586141, "price": 3250, "beds": 1, "baths": 1, "sqft": 1200, "url": "https://www.zillow.com/homedetails/1505-Stanford-Ave-1505-Baton-Rouge-LA-70808/443256276_zpid/"}, {"id": "nr346", "address": "717 S Eugene St", "lat": 30.4422185, "lon": -91.1598895, "price": 2500, "beds": 2, "baths": 1, "sqft": 1200, "url": "https://www.zillow.com/homedetails/717-S-Eugene-St-Baton-Rouge-LA-70806/66273464_zpid/"}, {"id": "nr347", "address": "614 Blanchard St", "lat": 30.4431593, "lon": -91.1496492, "price": 1800, "beds": 2, "baths": 2, "sqft": 1200, "url": "https://www.zillow.com/homedetails/614-Blanchard-St-Baton-Rouge-LA-70806/66285031_zpid/"}, {"id": "nr348", "address": "3423 Hundred Oaks Ave", "lat": 30.4323485, "lon": -91.1534602, "price": 1650, "beds": 2, "baths": 1, "sqft": 1200, "url": "https://www.zillow.com/homedetails/3423-Hundred-Oaks-Ave-Baton-Rouge-LA-70808/119319929_zpid/"}, {"id": "nr349", "address": "3343A Tula St", "lat": 30.4181228, "lon": -91.1755749, "price": 1625, "beds": 2, "baths": 2, "sqft": 1200, "url": "https://www.zillow.com/homedetails/3343A-Tula-St-A-Baton-Rouge-LA-70802/461380901_zpid/"}, {"id": "nr350", "address": "1346 Main St", "lat": 30.4517514, "lon": -91.1755395, "price": 1600, "beds": 3, "baths": 2, "sqft": 1200, "url": "https://www.zillow.com/homedetails/1346-Main-St-A-Baton-Rouge-LA-70802/461363639_zpid/"}, {"id": "nr351", "address": "956 Ridgepoint Ct", "lat": 30.3681332, "lon": -91.1017908, "price": 1475, "beds": 2, "baths": 3, "sqft": 1200, "url": "https://www.zillow.com/homedetails/956-Ridgepoint-Ct-15C-Baton-Rouge-LA-70810/2077186795_zpid/"}, {"id": "nr352", "address": "10536 N Oak Hills Pkwy", "lat": 30.3699039, "lon": -91.1034408, "price": 1400, "beds": 2, "baths": 2, "sqft": 1200, "url": "https://www.zillow.com/homedetails/10536-N-Oak-Hills-Pkwy-APT-B-Baton-Rouge-LA-70810/2123044637_zpid/"}, {"id": "nr353", "address": "624 S 14th St", "lat": 30.4424436, "lon": -91.174499, "price": 1400, "beds": 3, "baths": 2, "sqft": 1200, "url": "https://www.zillow.com/homedetails/624-S-14th-St-Baton-Rouge-LA-70802/66230190_zpid/"}, {"id": "nr354", "address": "4424 McClelland Ct", "lat": 30.4910103, "lon": -91.1346251, "price": 1360, "beds": 3, "baths": 2, "sqft": 1200, "url": "https://www.zillow.com/homedetails/4424-McClelland-Ct-Baton-Rouge-LA-70805/66257935_zpid/"}, {"id": "nr355", "address": "5529 Beth Ann Dr", "lat": 30.5013774, "lon": -91.1132752, "price": 1350, "beds": 3, "baths": 2, "sqft": 1200, "url": "https://www.zillow.com/homedetails/5529-Beth-Ann-Dr-Baton-Rouge-LA-70812/188723916_zpid/"}, {"id": "nr356", "address": "8252 Skysail Ave", "lat": 30.3539092, "lon": -91.1346779, "price": 1300, "beds": 3, "baths": 2, "sqft": 1200, "url": "https://www.zillow.com/homedetails/8252-Skysail-Ave-2-Baton-Rouge-LA-70820/462164822_zpid/"}, {"id": "nr357", "address": "842 Jennifer Jean Dr", "lat": 30.3978513, "lon": -91.1768372, "price": 1275, "beds": 3, "baths": 2, "sqft": 1200, "url": "https://www.zillow.com/homedetails/842-Jennifer-Jean-Dr-Baton-Rouge-LA-70808/66278612_zpid/"}, {"id": "nr358", "address": "7052 Perkins Place Ct", "lat": 30.4002859, "lon": -91.1143731, "price": 1215, "beds": 2, "baths": 2, "sqft": 1200, "url": "https://www.zillow.com/apartments/baton-rouge-la/perkins-place-townhomes/CrVrj3/"}, {"id": "nr359", "address": "1845 Starboard Dr", "lat": 30.3548624, "lon": -91.13298, "price": 1100, "beds": 3, "baths": 2, "sqft": 1200, "url": "https://www.zillow.com/apartments/baton-rouge-la/d-1845-starboard-dr/9JvCHD/"}, {"id": "nr360", "address": "7621 Bles Ave", "lat": 30.3927351, "lon": -91.10959, "price": 1000, "beds": 2, "baths": 2, "sqft": 1200, "url": "https://www.zillow.com/homedetails/7621-Bles-Ave-D-Baton-Rouge-LA-70810/2062349781_zpid/"}, {"id": "nr361", "address": "3449 Geronimo St", "lat": 30.4794501, "lon": -91.1616449, "price": 900, "beds": 3, "baths": 1, "sqft": 1200, "url": "https://www.zillow.com/homedetails/3449-Geronimo-St-Baton-Rouge-LA-70805/66262568_zpid/"}, {"id": "nr362", "address": "13715 Kenner Ave", "lat": 30.3665446, "lon": -91.0650461, "price": 1100, "beds": 2, "baths": 3, "sqft": 1193, "url": "https://www.zillow.com/homedetails/13715-Kenner-Ave-APT-C-Baton-Rouge-LA-70810/66261680_zpid/"}, {"id": "nr363", "address": "1219 N 44th St", "lat": 30.4597175, "lon": -91.1452025, "price": 1350, "beds": 4, "baths": 2, "sqft": 1192, "url": "https://www.zillow.com/homedetails/1219-N-44th-St-Baton-Rouge-LA-70802/452695832_zpid/"}, {"id": "nr364", "address": "1795A Boulevard De Province", "lat": 30.4378214, "lon": -91.0454074, "price": 1150, "beds": 2, "baths": 3, "sqft": 1184, "url": "https://www.zillow.com/homedetails/1795A-Boulevard-De-Province-Baton-Rouge-LA-70816/445009709_zpid/"}, {"id": "nr365", "address": "13621 Kenner Ave", "lat": 30.3668984, "lon": -91.0661289, "price": 975, "beds": 2, "baths": 3, "sqft": 1175, "url": "https://www.zillow.com/homedetails/13621-Kenner-Ave-APT-D-Baton-Rouge-LA-70810/66281567_zpid/"}, {"id": "nr366", "address": "13650 Kenner Ave", "lat": 30.3666813, "lon": -91.0658339, "price": 975, "beds": 2, "baths": 3, "sqft": 1175, "url": "https://www.zillow.com/homedetails/13650-Kenner-Ave-APT-A-Baton-Rouge-LA-70810/66281568_zpid/"}, {"id": "nr367", "address": "1735 Boulevard De Province", "lat": 30.4390857, "lon": -91.0451788, "price": 1100, "beds": 2, "baths": 3, "sqft": 1160, "url": "https://www.zillow.com/homedetails/1735-Boulevard-De-Province-Baton-Rouge-LA-70816/2085158467_zpid/"}, {"id": "nr368", "address": "1768 Boulevard De Province", "lat": 30.4380188, "lon": -91.0455083, "price": 1100, "beds": 2, "baths": 2, "sqft": 1160, "url": "https://www.zillow.com/homedetails/1768-Boulevard-De-Province-Baton-Rouge-LA-70816/66289771_zpid/"}, {"id": "nr369", "address": "3034 Dalton St", "lat": 30.4738015, "lon": -91.1591003, "price": 1000, "beds": 2, "baths": 1, "sqft": 1150, "url": "https://www.zillow.com/homedetails/3034-Dalton-St-Baton-Rouge-LA-70805/461585189_zpid/"}, {"id": "nr370", "address": "1035 Rittiner Dr", "lat": 30.4390317, "lon": -91.1612973, "price": 1200, "beds": 3, "baths": 1, "sqft": 1145, "url": "https://www.zillow.com/homedetails/1035-Rittiner-Dr-Baton-Rouge-LA-70806/66293023_zpid/"}, {"id": "nr371", "address": "3262 Hiawatha St", "lat": 30.4775383, "lon": -91.1667316, "price": 950, "beds": 2, "baths": 1, "sqft": 1140, "url": "https://www.zillow.com/homedetails/3262-Hiawatha-St-Baton-Rouge-LA-70805/66253473_zpid/"}, {"id": "nr372", "address": "1848 73rd Ave", "lat": 30.5148715, "lon": -91.1735644, "price": 1600, "beds": 4, "baths": 2, "sqft": 1139, "url": "https://www.zillow.com/homedetails/1848-73rd-Ave-Baton-Rouge-LA-70807/66250171_zpid/"}, {"id": "nr373", "address": "10286 W Winston Ave", "lat": 30.4163867, "lon": -91.0762923, "price": 1195, "beds": 2, "baths": 3, "sqft": 1136, "url": "https://www.zillow.com/homedetails/10286-W-Winston-Ave-APT-15-Baton-Rouge-LA-70809/81894573_zpid/"}, {"id": "nr374", "address": "10286 W Winston Ave", "lat": 30.4163867, "lon": -91.0762923, "price": 1195, "beds": 2, "baths": 3, "sqft": 1136, "url": "https://www.zillow.com/homedetails/10286-W-Winston-Ave-Baton-Rouge-LA-70809/2079286816_zpid/"}, {"id": "nr375", "address": "1826 S Brightside View Dr", "lat": 30.3859805, "lon": -91.1820279, "price": 1375, "beds": 3, "baths": 3, "sqft": 1129, "url": "https://www.zillow.com/homedetails/1826-S-Brightside-View-Dr-APT-H-Baton-Rouge-LA-70820/66264877_zpid/"}, {"id": "nr376", "address": "1761 Boulevard De Province", "lat": 30.4385381, "lon": -91.045283, "price": 1100, "beds": 2, "baths": 3, "sqft": 1123, "url": "https://www.zillow.com/homedetails/1761-Boulevard-De-Province-Baton-Rouge-LA-70816/66250329_zpid/"}, {"id": "nr377", "address": "12770 Brogdon Ln", "lat": 30.4043488, "lon": -91.0386612, "price": 1200, "beds": 2, "baths": 2, "sqft": 1120, "url": "https://www.zillow.com/homedetails/12770-Brogdon-Ln-Baton-Rouge-LA-70816/66371256_zpid/"}, {"id": "nr378", "address": "555 Burgin Ave", "lat": 30.3968489, "lon": -91.1551245, "price": 1950, "beds": 3, "baths": 2, "sqft": 1118, "url": "https://www.zillow.com/homedetails/555-Burgin-Ave-Baton-Rouge-LA-70808/247545418_zpid/"}, {"id": "nr379", "address": "1702 Terrace Ave", "lat": 30.4365044, "lon": -91.1709768, "price": 1400, "beds": 4, "baths": 2, "sqft": 1117, "url": "https://www.zillow.com/homedetails/1702-Terrace-Ave-Baton-Rouge-LA-70802/462590687_zpid/"}, {"id": "nr380", "address": "1859 Southpointe Dr", "lat": 30.3936291, "lon": -91.114125, "price": 950, "beds": 2, "baths": 2, "sqft": 1113, "url": "https://www.zillow.com/homedetails/1859-Southpointe-Dr-APT-3-Baton-Rouge-LA-70808/2090760842_zpid/"}, {"id": "nr381", "address": "8336 Bayou Fountain Ave", "lat": 30.3622792, "lon": -91.1246603, "price": 1040, "beds": 2, "baths": 2, "sqft": 1110, "url": "https://www.zillow.com/apartments/baton-rouge-la/b-8336-bayou-fountain/65cFKD/"}, {"id": "nr382", "address": "1757 Province Pl", "lat": 30.437838, "lon": -91.046491, "price": 1300, "beds": 2, "baths": 3, "sqft": 1109, "url": "https://www.zillow.com/homedetails/1757-Province-Pl-DE-Baton-Rouge-LA-70816/462415859_zpid/"}, {"id": "nr383", "address": "1795 Boulevard De Province", "lat": 30.4378214, "lon": -91.0454074, "price": 1250, "beds": 2, "baths": 3, "sqft": 1109, "url": "https://www.zillow.com/homedetails/1795-Boulevard-De-Province-Baton-Rouge-LA-70816/443253252_zpid/"}, {"id": "nr384", "address": "2090 Broussard St", "lat": 30.4357052, "lon": -91.1660688, "price": 1580, "beds": 2, "baths": 1, "sqft": 1107, "url": "https://www.zillow.com/homedetails/2090-Broussard-St-Baton-Rouge-LA-70808/66236791_zpid/"}, {"id": "nr385", "address": "1939 Terrace St", "lat": 30.4366989, "lon": -91.1683283, "price": 1800, "beds": 2, "baths": 1, "sqft": 1105, "url": "https://www.zillow.com/homedetails/1939-Terrace-St-Baton-Rouge-LA-70806/66228705_zpid/"}, {"id": "nr386", "address": "6360 Sevenoaks Ave", "lat": 30.4396507, "lon": -91.1247804, "price": 1800, "beds": 1, "baths": 1, "sqft": 1100, "url": "https://www.zillow.com/homedetails/6360-Sevenoaks-Ave-Baton-Rouge-LA-70806/66263658_zpid/"}, {"id": "nr387", "address": "1644 Marshall Dr", "lat": 30.4343162, "lon": -91.1358647, "price": 1700, "beds": 2, "baths": 1, "sqft": 1100, "url": "https://www.zillow.com/homedetails/1644-Marshall-Dr-Baton-Rouge-LA-70808/66274799_zpid/"}, {"id": "nr388", "address": "551 Glenmore Ave", "lat": 30.4438285, "lon": -91.1465243, "price": 1400, "beds": 3, "baths": 1, "sqft": 1100, "url": "https://www.zillow.com/homedetails/551-Glenmore-Ave-Baton-Rouge-LA-70806/66279894_zpid/"}, {"id": "nr389", "address": "829 E Boyd Dr", "lat": 30.3980856, "lon": -91.1779184, "price": 1400, "beds": 2, "baths": 2, "sqft": 1100, "url": "https://www.zillow.com/homedetails/829-E-Boyd-Dr-APT-D-Baton-Rouge-LA-70808/66254900_zpid/"}, {"id": "nr390", "address": "4112 Sycamore St", "lat": 30.4946635, "lon": -91.14854, "price": 1350, "beds": 3, "baths": 1, "sqft": 1100, "url": "https://www.zillow.com/homedetails/4112-Sycamore-St-Baton-Rouge-LA-70805/251966868_zpid/"}, {"id": "nr391", "address": "202 Belleview Dr", "lat": 30.4469832, "lon": -91.1614477, "price": 1300, "beds": 2, "baths": 1, "sqft": 1100, "url": "https://www.zillow.com/homedetails/202-Belleview-Dr-Baton-Rouge-LA-70806/188683401_zpid/"}, {"id": "nr392", "address": "1005 Rittiner Dr", "lat": 30.439096, "lon": -91.161038, "price": 1295, "beds": 3, "baths": 1, "sqft": 1100, "url": "https://www.zillow.com/homedetails/1005-Rittiner-Dr-Baton-Rouge-LA-70806/452765299_zpid/"}, {"id": "nr393", "address": "15959 Tiger Bend Rd", "lat": 30.3897284, "lon": -91.0081219, "price": 1265, "beds": 2, "baths": 2, "sqft": 1100, "url": "https://www.zillow.com/apartments/baton-rouge-la/shenandoah-bend/5Xhw4d/"}, {"id": "nr394", "address": "828 Meadow Bend Dr", "lat": 30.364171, "lon": -91.1289832, "price": 1250, "beds": 2, "baths": 2, "sqft": 1100, "url": "https://www.zillow.com/homedetails/828-Meadow-Bend-Dr-APT-C-Baton-Rouge-LA-70820/2065927771_zpid/"}, {"id": "nr395", "address": "2073 Brightside Dr", "lat": 30.3881936, "lon": -91.1817684, "price": 1200, "beds": 2, "baths": 2, "sqft": 1100, "url": "https://www.zillow.com/homedetails/2073-Brightside-Dr-Baton-Rouge-LA-70820/66370700_zpid/"}, {"id": "nr396", "address": "279 W Polk St", "lat": 30.4264708, "lon": -91.1832483, "price": 1200, "beds": 2, "baths": 2, "sqft": 1100, "url": "https://www.zillow.com/homedetails/279-W-Polk-St-Baton-Rouge-LA-70802/66280755_zpid/"}, {"id": "nr397", "address": "512 E State St", "lat": 30.4193707, "lon": -91.1726603, "price": 1200, "beds": 2, "baths": 1, "sqft": 1100, "url": "https://www.zillow.com/homedetails/512-E-State-St-Baton-Rouge-LA-70802/66266866_zpid/"}, {"id": "nr398", "address": "514 E State St", "lat": 30.4193749, "lon": -91.1726498, "price": 1200, "beds": 2, "baths": 1, "sqft": 1100, "url": "https://www.zillow.com/homedetails/514-E-State-St-Baton-Rouge-LA-70802/2086321557_zpid/"}, {"id": "nr399", "address": "7744 Lasalle Ave", "lat": 30.4351534, "lon": -91.1079427, "price": 1175, "beds": 2, "baths": 2, "sqft": 1100, "url": "https://www.zillow.com/homedetails/7744-Lasalle-Ave-APT-29-Baton-Rouge-LA-70806/66799035_zpid/"}, {"id": "nr400", "address": "16634 Missionary Ridge Ct", "lat": 30.4055382, "lon": -91.0020115, "price": 1150, "beds": 2, "baths": 2, "sqft": 1100, "url": "https://www.zillow.com/homedetails/16634-Missionary-Ridge-Ct-APT-B-Baton-Rouge-LA-70817/2098897061_zpid/"}, {"id": "nr401", "address": "3466 King Bradford Dr", "lat": 30.4209239, "lon": -91.0082053, "price": 1150, "beds": 2, "baths": 2, "sqft": 1100, "url": "https://www.zillow.com/homedetails/3466-King-Bradford-Dr-1-Baton-Rouge-LA-70816/462008632_zpid/"}, {"id": "nr402", "address": "7047 Meadow Park Ave", "lat": 30.3716089, "lon": -91.0696327, "price": 1150, "beds": 3, "baths": 2, "sqft": 1100, "url": "https://www.zillow.com/homedetails/7047-Meadow-Park-Ave-Baton-Rouge-LA-70810/2054203713_zpid/"}, {"id": "nr403", "address": "12784 Brogdon Ln", "lat": 30.4043306, "lon": -91.0385169, "price": 1100, "beds": 2, "baths": 2, "sqft": 1100, "url": "https://www.zillow.com/homedetails/12784-Brogdon-Ln-Baton-Rouge-LA-70816/66371257_zpid/"}, {"id": "nr404", "address": "8911 Gsri Ave", "lat": 30.3557, "lon": -91.122337, "price": 1100, "beds": 2, "baths": 2, "sqft": 1100, "url": "https://www.zillow.com/homedetails/8911-8921-Gsri-Ave-Baton-Rouge-LA-70810/456373365_zpid/"}, {"id": "nr405", "address": "3515 Yorkfield Dr", "lat": 30.42169, "lon": -91.0093193, "price": 1000, "beds": 2, "baths": 2, "sqft": 1100, "url": "https://www.zillow.com/homedetails/3515-Yorkfield-Dr-1-Baton-Rouge-LA-70816/463221994_zpid/"}, {"id": "nr406", "address": "7733 Bles Ave", "lat": 30.392251, "lon": -91.1087409, "price": 1000, "beds": 2, "baths": 2, "sqft": 1100, "url": "https://www.zillow.com/homedetails/7733-Bles-Ave-APT-C-Baton-Rouge-LA-70810/2082110687_zpid/"}, {"id": "nr407", "address": "11671 N Harrells Ferry Rd", "lat": 30.4323243, "lon": -91.0519709, "price": 995, "beds": 2, "baths": 2, "sqft": 1100, "url": "https://www.zillow.com/homedetails/11671-N-Harrells-Ferry-Rd-7-Baton-Rouge-LA-70816/452971133_zpid/"}, {"id": "nr408", "address": "1773 Starboard Dr", "lat": 30.3556136, "lon": -91.132512, "price": 995, "beds": 2, "baths": 2, "sqft": 1100, "url": "https://www.zillow.com/apartments/baton-rouge-la/dm-1773-starboard-dr./9m6TVM/"}, {"id": "nr409", "address": "944 Hammond Manor Dr", "lat": 30.4566754, "lon": -91.0105201, "price": 995, "beds": 2, "baths": 2, "sqft": 1100, "url": "https://www.zillow.com/homedetails/944-Hammond-Manor-Dr-Baton-Rouge-LA-70816/66227707_zpid/"}, {"id": "nr410", "address": "1666 N 48th St", "lat": 30.4638873, "lon": -91.1421234, "price": 980, "beds": 4, "baths": 2, "sqft": 1100, "url": "https://www.zillow.com/homedetails/1666-N-48th-St-Baton-Rouge-LA-70802/66263552_zpid/"}, {"id": "nr411", "address": "564 Cotton St", "lat": 30.4345876, "lon": -91.1805067, "price": 950, "beds": 2, "baths": 1, "sqft": 1100, "url": "https://www.zillow.com/homedetails/564-Cotton-St-Baton-Rouge-LA-70802/66294470_zpid/"}, {"id": "nr412", "address": "7942 Bles Ave", "lat": 30.3912698, "lon": -91.1071884, "price": 950, "beds": 2, "baths": 2, "sqft": 1100, "url": "https://www.zillow.com/homedetails/7942-Bles-Ave-Baton-Rouge-LA-70810/66367673_zpid/"},