[
  {
    "id": "nr1",
    "address": "2750 Millerville Rd   # 148292",
    "lat": 30.434932101415,
    "lon": -91.024447496191,
    "price": "",
    "beds": "",
    "baths": "",
    "sqft": "",
    "url": "https://www.zillow.com/apartments/baton-rouge-la/the-regent-apartment-homes/5Xhw8B/"
  },
  {
    "id": "nr2",
    "address": "5500 Perkins Rd   # 3131",
    "lat": 30.410302963272,
    "lon": -91.131069272792,
    "price": "",
    "beds": "",
    "baths": "",
    "sqft": "",
    "url": "https://www.zillow.com/apartments/baton-rouge-la/the-district-apartments/5YyFpY/"
  },
  {
    "id": "nr3",
    "address": "11888 Old Hammond Hwy # fa691bb87",
    "lat": 30.438480968051,
    "lon": -91.051422792827,
    "price": "",
    "beds": "",
    "baths": "",
    "sqft": "",
    "url": "https://www.zillow.com/apartments/baton-rouge-la/spires-of-sherwood/5Xhw8Y/"
  },
  {
    "id": "nr4",
    "address": "8001 Pine Valley Dr # 102",
    "lat": 30.3789662,
    "lon": -91.0242009,
    "price": "",
    "beds": "",
    "baths": "",
    "sqft": "",
    "url": "https://www.zillow.com/apartments/baton-rouge-la/cedar-grove-townhomes/Ck8ppc/"
  },
  {
    "id": "nr5",
    "address": "11111 N  Harrells Ferry Rd b4fa16f",
    "lat": 30.432883486617,
    "lon": -91.060308665855,
    "price": "",
    "beds": "",
    "baths": "",
    "sqft": "",
    "url": "https://www.zillow.com/apartments/baton-rouge-la/muriel-crossing-apartments/5XmFfb/"
  },
  {
    "id": "nr6",
    "address": "417 E  State St # 2",
    "lat": 30.419314658837,
    "lon": -91.173318002368,
    "price": "",
    "beds": "",
    "baths": "",
    "sqft": "",
    "url": "https://www.zillow.com/apartments/baton-rouge-la/the-cove-at-state-street/CkPGqJ/"
  },
  {
    "id": "nr7",
    "address": "16333 Columns Way # 6",
    "lat": 30.365509637802,
    "lon": -91.011986523407,
    "price": "",
    "beds": "",
    "baths": "",
    "sqft": "",
    "url": "https://www.zillow.com/apartments/baton-rouge-la/tapestry-at-long-farm/CkBRwR/"
  },
  {
    "id": "nr8",
    "address": "10231 The Grove Blvd # 1209",
    "lat": 30.385900936377,
    "lon": -91.079943128367,
    "price": "",
    "beds": "",
    "baths": "",
    "sqft": "",
    "url": "https://www.zillow.com/apartments/baton-rouge-la/the-addison-apartments/CkBV3Y/"
  },
  {
    "id": "nr9",
    "address": "4850 Rouzan Square Ave # 442",
    "lat": 30.413532,
    "lon": -91.1387003,
    "price": "",
    "beds": "",
    "baths": "",
    "sqft": "",
    "url": "https://www.zillow.com/apartments/baton-rouge-la/the-everly-at-rouzan/CYFpZC/"
  },
  {
    "id": "nr10",
    "address": "10245 Airline Hwy",
    "lat": 30.418523070578,
    "lon": -91.071137233125,
    "price": "",
    "beds": "",
    "baths": "",
    "sqft": "",
    "url": "https://www.zillow.com/apartments/baton-rouge-la/ltl-royal-palms-baton-rouge-mt-llc/CjwDR5/"
  },
  {
    "id": "nr11",
    "address": "6810 Jefferson Hwy  # 5208",
    "lat": 30.433853846712,
    "lon": -91.119696881431,
    "price": "",
    "beds": "",
    "baths": "",
    "sqft": "",
    "url": "https://www.zillow.com/apartments/baton-rouge-la/the-millennium-towne-center/5Xhw3Y/"
  },
  {
    "id": "nr12",
    "address": "8363 Siegen Ln # 69",
    "lat": 30.372954407764,
    "lon": -91.071477887496,
    "price": "",
    "beds": "",
    "baths": "",
    "sqft": "",
    "url": "https://www.zillow.com/apartments/baton-rouge-la/siegen-calais-apartments/5Xhw4K/"
  },
  {
    "id": "nr13",
    "address": "10156 Perkins Rowe",
    "lat": 30.378679276244,
    "lon": -91.09351298719,
    "price": "",
    "beds": "",
    "baths": "",
    "sqft": "",
    "url": "https://www.zillow.com/b/building/30.378508,-91.09368_ll/"
  },
  {
    "id": "nr14",
    "address": "5960 Siegen Ln # 7204",
    "lat": 30.395922752128,
    "lon": -91.057804920379,
    "price": "",
    "beds": "",
    "baths": "",
    "sqft": "",
    "url": "https://www.zillow.com/apartments/baton-rouge-la/bristol-place-apartment-homes/5Xhw4Z/"
  },
  {
    "id": "nr15",
    "address": "10231 Bluebonnet Blvd # D",
    "lat": 30.35111738228,
    "lon": -91.111811117574,
    "price": "",
    "beds": "",
    "baths": "",
    "sqft": "",
    "url": "https://www.zillow.com/apartments/baton-rouge-la/bend-on-bluebonnet/CjjCQP/"
  },
  {
    "id": "nr16",
    "address": "7248 Perkins Rd",
    "lat": 30.397924932571,
    "lon": -91.1142463201,
    "price": "",
    "beds": "",
    "baths": "",
    "sqft": "",
    "url": "https://www.zillow.com/apartments/baton-rouge-la/perkins-palms/CjkmQr/"
  },
  {
    "id": "nr17",
    "address": "2040 Gayosa St   cfe2f",
    "lat": 30.454113527153,
    "lon": -91.167883496451,
    "price": "",
    "beds": "",
    "baths": "",
    "sqft": "",
    "url": "https://www.zillow.com/apartments/baton-rouge-la/motor-city-apartments/CjjCWt/"
  },
  {
    "id": "nr18",
    "address": "2501 Brightside Dr",
    "lat": 30.388759923601,
    "lon": -91.186790340546,
    "price": "1400",
    "beds": "1",
    "baths": "1",
    "sqft": "499",
    "url": "https://www.zillow.com/apartments/baton-rouge-la/solo-brightside/CpGmnN/"
  },
  {
    "id": "nr19",
    "address": "5344 River Meadow Dr",
    "lat": 30.3887152,
    "lon": -91.2019615,
    "price": "2500",
    "beds": "3",
    "baths": "2",
    "sqft": "1847",
    "url": "https://www.zillow.com/homedetails/5344-River-Meadow-Dr-Baton-Rouge-LA-70820/66292427_zpid/"
  },
  {
    "id": "nr20",
    "address": "4284 Oxford Ave",
    "lat": 30.404298282807,
    "lon": -91.172055589635,
    "price": "1150",
    "beds": "1",
    "baths": "1",
    "sqft": "500",
    "url": "https://www.zillow.com/homedetails/4284-Oxford-Ave-APT-101-Baton-Rouge-LA-70808/108614623_zpid/"
  },
  {
    "id": "nr21",
    "address": "505 University Walk",
    "lat": 30.454020541038,
    "lon": -91.185748055198,
    "price": "",
    "beds": "",
    "baths": "",
    "sqft": "",
    "url": "https://www.zillow.com/b/505-university-walk-baton-rouge-la-5Xy9JQ/"
  },
  {
    "id": "nr22",
    "address": "900 Dean Lee Dr",
    "lat": 30.385369545176,
    "lon": -91.171156099766,
    "price": "",
    "beds": "",
    "baths": "",
    "sqft": "",
    "url": "https://www.zillow.com/b/900-dean-lee-dr-baton-rouge-la-5YCFyM/"
  },
  {
    "id": "nr23",
    "address": "4264 Oxford Ave",
    "lat": 30.40447193919,
    "lon": -91.172282354493,
    "price": "1395",
    "beds": "2",
    "baths": "1",
    "sqft": "1000",
    "url": "https://www.zillow.com/homedetails/4264-Oxford-Ave-3-Baton-Rouge-LA-70808/458861973_zpid/"
  },
  {
    "id": "nr24",
    "address": "2534 Oleander St",
    "lat": 30.442288580907,
    "lon": -91.161889877823,
    "price": "3000",
    "beds": "4",
    "baths": "3",
    "sqft": "1981",
    "url": "https://www.zillow.com/homedetails/2534-Oleander-St-Baton-Rouge-LA-70806/2057460764_zpid/"
  },
  {
    "id": "nr25",
    "address": "4253 Janet Ave",
    "lat": 30.402020775536,
    "lon": -91.174989195452,
    "price": "",
    "beds": "",
    "baths": "",
    "sqft": "",
    "url": "https://www.zillow.com/b/4253-janet-ave-baton-rouge-la-9JtY5H/"
  },
  {
    "id": "nr26",
    "address": "714 Jennifer Jean Dr",
    "lat": 30.398706679458,
    "lon": -91.175963804603,
    "price": "1200",
    "beds": "2",
    "baths": "1",
    "sqft": "1100",
    "url": "https://www.zillow.com/homedetails/714-Jennifer-Jean-Dr-Baton-Rouge-LA-70808/2069669932_zpid/"
  },
  {
    "id": "nr27",
    "address": "8155 Jefferson Hwy",
    "lat": 30.42347047268,
    "lon": -91.103465335151,
    "price": "1300",
    "beds": "2",
    "baths": "2",
    "sqft": "1265",
    "url": "https://www.zillow.com/homedetails/8155-Jefferson-Hwy-APT-1301-Baton-Rouge-LA-70809/81890325_zpid/"
  },
  {
    "id": "nr28",
    "address": "5151 Etta St -G",
    "lat": 30.38976643171,
    "lon": -91.170140074512,
    "price": "1600",
    "beds": "3",
    "baths": "2",
    "sqft": "1475",
    "url": "https://www.zillow.com/homedetails/5151-Etta-St-3-G-Baton-Rouge-LA-70820/66799650_zpid/"
  },
  {
    "id": "nr29",
    "address": "1726 Brightside Dr",
    "lat": 30.387851183509,
    "lon": -91.177668840434,
    "price": "1050",
    "beds": "2",
    "baths": "2",
    "sqft": "1018",
    "url": "https://www.zillow.com/homedetails/1726-Brightside-Dr-APT-D-Baton-Rouge-LA-70820/2059154603_zpid/"
  },
  {
    "id": "nr30",
    "address": "4240 Dodson Ave",
    "lat": 30.402610440091,
    "lon": -91.174688897429,
    "price": "1935",
    "beds": "3",
    "baths": "2",
    "sqft": "1625",
    "url": "https://www.zillow.com/homedetails/4240-Dodson-Ave-C-Baton-Rouge-LA-70808/108612686_zpid/"
  },
  {
    "id": "nr31",
    "address": "644 Highland Park Dr",
    "lat": 30.364779495305,
    "lon": -91.124822990671,
    "price": "2300",
    "beds": "4",
    "baths": "3",
    "sqft": "2148",
    "url": "https://www.zillow.com/homedetails/644-Highland-Park-Dr-Baton-Rouge-LA-70808/66293904_zpid/"
  },
  {
    "id": "nr32",
    "address": "1712 Brightside Dr",
    "lat": 30.387780884213,
    "lon": -91.177028343798,
    "price": "1100",
    "beds": "2",
    "baths": "1",
    "sqft": "1088",
    "url": "https://www.zillow.com/homedetails/1712-Brightside-Dr-APT-B-Baton-Rouge-LA-70820/2069151854_zpid/"
  },
  {
    "id": "nr33",
    "address": "1724 Brightside Dr",
    "lat": 30.387811560723,
    "lon": -91.177305631695,
    "price": "1025",
    "beds": "2",
    "baths": "2",
    "sqft": "1050",
    "url": "https://www.zillow.com/homedetails/1724-Brightside-Dr-A-Baton-Rouge-LA-70820/462317935_zpid/"
  },
  {
    "id": "nr34",
    "address": "1704 Brightside Dr",
    "lat": 30.387768237558,
    "lon": -91.176912241287,
    "price": "1175",
    "beds": "2",
    "baths": "2",
    "sqft": "1088",
    "url": "https://www.zillow.com/homedetails/1704-Brightside-Dr-APT-C-Baton-Rouge-LA-70820/66808098_zpid/"
  },
  {
    "id": "nr35",
    "address": "1763 Briar Oak Dr",
    "lat": 30.368654043407,
    "lon": -91.084579893483,
    "price": "1900",
    "beds": "3",
    "baths": "2",
    "sqft": "1453",
    "url": "https://www.zillow.com/homedetails/1763-Briar-Oak-Dr-Baton-Rouge-LA-70810/66232623_zpid/"
  },
  {
    "id": "nr36",
    "address": "13543 Honey Dr",
    "lat": 30.365472250908,
    "lon": -91.06955664364,
    "price": "1650",
    "beds": "3",
    "baths": "2",
    "sqft": "1419",
    "url": "https://www.zillow.com/homedetails/13543-Honey-Dr-Baton-Rouge-LA-70810/66360977_zpid/"
  },
  {
    "id": "nr37",
    "address": "3938 Garden View Dr",
    "lat": 30.411805265015,
    "lon": -91.072497590188,
    "price": "2000",
    "beds": "3",
    "baths": "2",
    "sqft": "1620",
    "url": "https://www.zillow.com/homedetails/3938-Garden-View-Dr-Baton-Rouge-LA-70809/66288796_zpid/"
  },
  {
    "id": "nr38",
    "address": "7743 Bles Ave",
    "lat": 30.392207901748,
    "lon": -91.108665011716,
    "price": "1000",
    "beds": "2",
    "baths": "2",
    "sqft": "1050",
    "url": "https://www.zillow.com/homedetails/7743-Bles-Ave-1B-Baton-Rouge-LA-70810/460828064_zpid/"
  },
  {
    "id": "nr39",
    "address": "1820 Jade Ave",
    "lat": 30.352495636675,
    "lon": -91.120929800396,
    "price": "1150",
    "beds": "3",
    "baths": "2",
    "sqft": "1096",
    "url": "https://www.zillow.com/homedetails/1820-Jade-Ave-Baton-Rouge-LA-70810/70846155_zpid/"
  },
  {
    "id": "nr40",
    "address": "314 Bedford Dr",
    "lat": 30.445910228951,
    "lon": -91.157667797578,
    "price": "2200",
    "beds": "3",
    "baths": "2",
    "sqft": "1513",
    "url": "https://www.zillow.com/homedetails/314-Bedford-Dr-Baton-Rouge-LA-70806/66289663_zpid/"
  },
  {
    "id": "nr41",
    "address": "1530 Goldenrod Ave",
    "lat": 30.434632670984,
    "lon": -91.15418140937,
    "price": "2400",
    "beds": "3",
    "baths": "1",
    "sqft": "1183",
    "url": "https://www.zillow.com/homedetails/1530-Goldenrod-Ave-Baton-Rouge-LA-70808/66286612_zpid/"
  },
  {
    "id": "nr42",
    "address": "162 E State St",
    "lat": 30.418442594188,
    "lon": -91.175522162614,
    "price": "975",
    "beds": "1",
    "baths": "1",
    "sqft": "775",
    "url": "https://www.zillow.com/homedetails/162-E-State-St-Baton-Rouge-LA-70802/2078926317_zpid/"
  },
  {
    "id": "nr43",
    "address": "5212 Butter Creek Ln",
    "lat": 30.397354684136,
    "lon": -91.099088267464,
    "price": "1200",
    "beds": "1",
    "baths": "1",
    "sqft": "750",
    "url": "https://www.zillow.com/homedetails/5212-Butter-Creek-Ln-D-6-Baton-Rouge-LA-70809/441940863_zpid/"
  },
  {
    "id": "nr44",
    "address": "4250 Janet Ave",
    "lat": 30.401953718928,
    "lon": -91.175101369496,
    "price": "1500",
    "beds": "1",
    "baths": "1",
    "sqft": "650",
    "url": "https://www.zillow.com/homedetails/4250-Janet-Ave-6-Baton-Rouge-LA-70808/462305674_zpid/"
  },
  {
    "id": "nr45",
    "address": "620 Kenmore Ave",
    "lat": 30.443100401412,
    "lon": -91.158168344302,
    "price": "1450",
    "beds": "2",
    "baths": "1",
    "sqft": "1500",
    "url": "https://www.zillow.com/homedetails/620-Kenmore-Ave-Baton-Rouge-LA-70806/347007925_zpid/"
  },
  {
    "id": "nr46",
    "address": "4441 Burbank Dr",
    "lat": 30.399822670176,
    "lon": -91.17387673192,
    "price": "1700",
    "beds": "3",
    "baths": "2",
    "sqft": "1554",
    "url": "https://www.zillow.com/homedetails/4441-Burbank-Dr-APT-608-Baton-Rouge-LA-70820/66807789_zpid/"
  },
  {
    "id": "nr47",
    "address": "2094 Elissalde St",
    "lat": 30.422497542686,
    "lon": -91.16251820061,
    "price": "2400",
    "beds": "3",
    "baths": "2",
    "sqft": "2016",
    "url": "https://www.zillow.com/homedetails/2094-Elissalde-St-Baton-Rouge-LA-70808/66267978_zpid/"
  },
  {
    "id": "nr48",
    "address": "7950 Jefferson Hwy",
    "lat": 30.42533850727,
    "lon": -91.105664002356,
    "price": "1500",
    "beds": "2",
    "baths": "2",
    "sqft": "1200",
    "url": "https://www.zillow.com/homedetails/7950-Jefferson-Hwy-Baton-Rouge-LA-70809/251067285_zpid/"
  },
  {
    "id": "nr49",
    "address": "1478 Sharlo Ave",
    "lat": 30.390002620439,
    "lon": -91.184749147594,
    "price": "1300",
    "beds": "2",
    "baths": "3",
    "sqft": "1300",
    "url": "https://www.zillow.com/homedetails/1478-Sharlo-Ave-Baton-Rouge-LA-70820/66377358_zpid/"
  },
  {
    "id": "nr50",
    "address": "17247 Tidewater Ln",
    "lat": 30.320507241562,
    "lon": -91.129887546939,
    "price": "2700",
    "beds": "3",
    "baths": "2",
    "sqft": "1659",
    "url": "https://www.zillow.com/homedetails/17247-Tidewater-Ln-Baton-Rouge-LA-70810/452648851_zpid/"
  },
  {
    "id": "nr51",
    "address": "3101 Highland Rd",
    "lat": 30.420465967139,
    "lon": -91.177508521385,
    "price": "1125",
    "beds": "2",
    "baths": "1",
    "sqft": "960",
    "url": "https://www.zillow.com/homedetails/3101-Highland-Rd-APT-308-Baton-Rouge-LA-70802/66805074_zpid/"
  },
  {
    "id": "nr52",
    "address": "5236 Brightside Dr",
    "lat": 30.386494398187,
    "lon": -91.181330802622,
    "price": "1000",
    "beds": "2",
    "baths": "2",
    "sqft": "1100",
    "url": "https://www.zillow.com/homedetails/5236-Brightside-Dr-APT-3-Baton-Rouge-LA-70820/450532064_zpid/"
  },
  {
    "id": "nr53",
    "address": "5131 Butter Creek Ln",
    "lat": 30.397921934912,
    "lon": -91.098888309823,
    "price": "2300",
    "beds": "2",
    "baths": "1",
    "sqft": "1100",
    "url": "https://www.zillow.com/homedetails/5131-Butter-Creek-Ln-Baton-Rouge-LA-70809/2078281235_zpid/"
  },
  {
    "id": "nr54",
    "address": "5110 Butter Creek Ln",
    "lat": 30.397993396414,
    "lon": -91.09869376295,
    "price": "1725",
    "beds": "1",
    "baths": "2",
    "sqft": "900",
    "url": "https://www.zillow.com/homedetails/5110-Butter-Creek-Ln-A-2-Baton-Rouge-LA-70809/66276927_zpid/"
  },
  {
    "id": "nr55",
    "address": "8506 Leake Ave",
    "lat": 30.348962655285,
    "lon": -91.135291028446,
    "price": "1150",
    "beds": "2",
    "baths": "2",
    "sqft": "1050",
    "url": "https://www.zillow.com/homedetails/8506-Leake-Ave-D-Baton-Rouge-LA-70810/2061144028_zpid/"
  },
  {
    "id": "nr56",
    "address": "8240 Rocky Trail Ave",
    "lat": 30.36265959067,
    "lon": -91.142005538623,
    "price": "3095",
    "beds": "4",
    "baths": "3",
    "sqft": "1799",
    "url": "https://www.zillow.com/homedetails/8240-Rocky-Trail-Ave-Baton-Rouge-LA-70820/2081779674_zpid/"
  },
  {
    "id": "nr57",
    "address": "2509 Olive St",
    "lat": 30.439668920539,
    "lon": -91.162054692029,
    "price": "1600",
    "beds": "2",
    "baths": "1",
    "sqft": "1300",
    "url": "https://www.zillow.com/homedetails/2509-Olive-St-Baton-Rouge-LA-70806/66273368_zpid/"
  },
  {
    "id": "nr58",
    "address": "879 S Eugene St",
    "lat": 30.440696894401,
    "lon": -91.159830570769,
    "price": "1400",
    "beds": "1",
    "baths": "1",
    "sqft": "1000",
    "url": "https://www.zillow.com/homedetails/879-S-Eugene-St-5-Baton-Rouge-LA-70806/456871313_zpid/"
  },
  {
    "id": "nr59",
    "address": "4326 Highland Rd",
    "lat": 30.403365258262,
    "lon": -91.172106028782,
    "price": "1400",
    "beds": "2",
    "baths": "1",
    "sqft": "1400",
    "url": "https://www.zillow.com/homedetails/4326-Highland-Rd-Baton-Rouge-LA-70808/66285659_zpid/"
  },
  {
    "id": "nr60",
    "address": "7183 Chandler Dr",
    "lat": 30.391914799619,
    "lon": -91.133683694145,
    "price": "2000",
    "beds": "2",
    "baths": "2",
    "sqft": "1400",
    "url": "https://www.zillow.com/homedetails/7183-Chandler-Dr-Baton-Rouge-LA-70808/66292353_zpid/"
  },
  {
    "id": "nr61",
    "address": "7855 Clover Ridge Ave",
    "lat": 30.368872812806,
    "lon": -91.127480044808,
    "price": "1500",
    "beds": "2",
    "baths": "1",
    "sqft": "975",
    "url": "https://www.zillow.com/homedetails/7855-Clover-Ridge-Ave-Baton-Rouge-LA-70820/66284618_zpid/"
  },
  {
    "id": "nr62",
    "address": "115 S Leo St",
    "lat": 30.44829330232,
    "lon": -91.146253113398,
    "price": "995",
    "beds": "1",
    "baths": "1",
    "sqft": "500",
    "url": "https://www.zillow.com/homedetails/115-S-Leo-St-APT-6-Baton-Rouge-LA-70806/2080963376_zpid/"
  },
  {
    "id": "nr63",
    "address": "7646 Antebellum Ave",
    "lat": 30.362858082187,
    "lon": -91.140757357401,
    "price": "2750",
    "beds": "3",
    "baths": "2",
    "sqft": "1545",
    "url": "https://www.zillow.com/homedetails/7646-Antebellum-Ave-Baton-Rouge-LA-70820/251967607_zpid/"
  },
  {
    "id": "nr64",
    "address": "3202 Ivanhoe St",
    "lat": 30.418787608464,
    "lon": -91.174287430358,
    "price": "1300",
    "beds": "2",
    "baths": "1",
    "sqft": "750",
    "url": "https://www.zillow.com/homedetails/3202-Ivanhoe-St-Baton-Rouge-LA-70802/66291665_zpid/"
  },
  {
    "id": "nr65",
    "address": "14014 Azalea Park Ave",
    "lat": 30.449599905071,
    "lon": -91.03029811356,
    "price": "1000",
    "beds": "2",
    "baths": "2",
    "sqft": "900",
    "url": "https://www.zillow.com/homedetails/14014-Azalea-Park-Ave-Baton-Rouge-LA-70816/66372663_zpid/"
  },
  {
    "id": "nr66",
    "address": "3262 Wyoming St",
    "lat": 30.419168617294,
    "lon": -91.188499856681,
    "price": "1050",
    "beds": "2",
    "baths": "1",
    "sqft": "1000",
    "url": "https://www.zillow.com/homedetails/3262-Wyoming-St-2-Baton-Rouge-LA-70802/459688177_zpid/"
  },
  {
    "id": "nr67",
    "address": "229 E State St",
    "lat": 30.418718322671,
    "lon": -91.174923487443,
    "price": "1200",
    "beds": "2",
    "baths": "1",
    "sqft": "800",
    "url": "https://www.zillow.com/homedetails/229-E-State-St-M-Baton-Rouge-LA-70802/2080490436_zpid/"
  },
  {
    "id": "nr68",
    "address": "1564 Belmont Ave",
    "lat": 30.435339886273,
    "lon": -91.165275923014,
    "price": "825",
    "beds": "1",
    "baths": "1",
    "sqft": "375",
    "url": "https://www.zillow.com/homedetails/1564-Belmont-Ave-2-Baton-Rouge-LA-70808/443715607_zpid/"
  },
  {
    "id": "nr69",
    "address": "5141 Brightside View Dr",
    "lat": 30.387389163108,
    "lon": -91.181068946264,
    "price": "1350",
    "beds": "2",
    "baths": "2",
    "sqft": "992",
    "url": "https://www.zillow.com/homedetails/5141-Brightside-View-Dr-Baton-Rouge-LA-70820/66372213_zpid/"
  },
  {
    "id": "nr70",
    "address": "322 Flicker St",
    "lat": 30.533573876121,
    "lon": -91.197430631025,
    "price": "1200",
    "beds": "3",
    "baths": "1",
    "sqft": "1276",
    "url": "https://www.zillow.com/homedetails/322-Flicker-St-Baton-Rouge-LA-70807/66329881_zpid/"
  },
  {
    "id": "nr71",
    "address": "14555 Old Hammond Hwy",
    "lat": 30.452017346868,
    "lon": -91.024034189778,
    "price": "2000",
    "beds": "6",
    "baths": "2",
    "sqft": "2000",
    "url": "https://www.zillow.com/homedetails/14555-Old-Hammond-Hwy-Baton-Rouge-LA-70816/461412596_zpid/"
  },
  {
    "id": "nr72",
    "address": "3645 Gladiola St",
    "lat": 30.415833621707,
    "lon": -91.155511804305,
    "price": "1395",
    "beds": "1",
    "baths": "1",
    "sqft": "650",
    "url": "https://www.zillow.com/homedetails/3645-3647-Gladiola-St-7-Baton-Rouge-LA-70808/458320588_zpid/"
  },
  {
    "id": "nr73",
    "address": "205 E State St",
    "lat": 30.418651003258,
    "lon": -91.175165765195,
    "price": "850",
    "beds": "0",
    "baths": "1",
    "sqft": "500",
    "url": "https://www.zillow.com/homedetails/205-E-State-St-1D-Baton-Rouge-LA-70802/452658592_zpid/"
  },
  {
    "id": "nr74",
    "address": "5137 Nicholson Dr",
    "lat": 30.389443490937,
    "lon": -91.172552918663,
    "price": "1100",
    "beds": "1",
    "baths": "1",
    "sqft": "741",
    "url": "https://www.zillow.com/homedetails/5137-Nicholson-Dr-APT-B33-Baton-Rouge-LA-70820/66300457_zpid/"
  },
  {
    "id": "nr75",
    "address": "2403 Brightside Dr",
    "lat": 30.38857513023,
    "lon": -91.185029044284,
    "price": "1800",
    "beds": "3",
    "baths": "4",
    "sqft": "1730",
    "url": "https://www.zillow.com/homedetails/2403-Brightside-Dr-APT-18-Baton-Rouge-LA-70820/104465586_zpid/"
  },
  {
    "id": "nr76",
    "address": "2293 Hollydale Ave",
    "lat": 30.424586221401,
    "lon": -91.158223365724,
    "price": "1700",
    "beds": "2",
    "baths": "2",
    "sqft": "1200",
    "url": "https://www.zillow.com/homedetails/2293-Hollydale-Ave-APT-7C-Baton-Rouge-LA-70808/66384069_zpid/"
  },
  {
    "id": "nr77",
    "address": "5213 Butter Creek Ln",
    "lat": 30.397408585222,
    "lon": -91.099205506932,
    "price": "975",
    "beds": "1",
    "baths": "1",
    "sqft": "700",
    "url": "https://www.zillow.com/homedetails/5213-Butter-Creek-Ln-APT-6-Baton-Rouge-LA-70809/66277017_zpid/"
  },
  {
    "id": "nr78",
    "address": "10428 Jefferson Hwy",
    "lat": 30.408628302943,
    "lon": -91.067078966624,
    "price": "995",
    "beds": "0",
    "baths": "1",
    "sqft": "620",
    "url": "https://www.zillow.com/homedetails/10428-Jefferson-Hwy-APT-K-Baton-Rouge-LA-70809/458339308_zpid/"
  },
  {
    "id": "nr79",
    "address": "115 Clara Dr",
    "lat": 30.400035284383,
    "lon": -91.167349748376,
    "price": "1150",
    "beds": "2",
    "baths": "1",
    "sqft": "750",
    "url": "https://www.zillow.com/homedetails/115-Clara-Dr-APT-2-Baton-Rouge-LA-70808/2091952921_zpid/"
  },
  {
    "id": "nr80",
    "address": "1226 Stoneliegh Dr",
    "lat": 30.388519606578,
    "lon": -91.127869267377,
    "price": "2100",
    "beds": "4",
    "baths": "3",
    "sqft": "2200",
    "url": "https://www.zillow.com/homedetails/1226-Stoneliegh-Dr-Baton-Rouge-LA-70808/66283293_zpid/"
  },
  {
    "id": "nr81",
    "address": "3625 Partridge Ln",
    "lat": 30.416181881414,
    "lon": -91.082889622012,
    "price": "1650",
    "beds": "3",
    "baths": "2",
    "sqft": "",
    "url": "https://www.zillow.com/homedetails/3625-Partridge-Ln-Baton-Rouge-LA-70809/188691302_zpid/"
  },
  {
    "id": "nr82",
    "address": "10600 Lakes Blvd",
    "lat": 30.356345793778,
    "lon": -91.108955216798,
    "price": "",
    "beds": "",
    "baths": "",
    "sqft": "",
    "url": "https://www.zillow.com/b/10600-lakes-blvd-baton-rouge-la-CjgH4r/"
  },
  {
    "id": "nr83",
    "address": "18548 Lake Camellia Ave",
    "lat": 30.356091104334,
    "lon": -90.98442954461,
    "price": "2100",
    "beds": "3",
    "baths": "2",
    "sqft": "1823",
    "url": "https://www.zillow.com/homedetails/18548-Lake-Camellia-Ave-Baton-Rouge-LA-70817/66333813_zpid/"
  },
  {
    "id": "nr84",
    "address": "10655 Woodland Oaks Dr",
    "lat": 30.400870116532,
    "lon": -91.062684076716,
    "price": "2200",
    "beds": "3",
    "baths": "2",
    "sqft": "1852",
    "url": "https://www.zillow.com/homedetails/10655-Woodland-Oaks-Dr-Baton-Rouge-LA-70809/66798399_zpid/"
  },
  {
    "id": "nr85",
    "address": "5050 Stumberg Ln",
    "lat": 30.405548490124,
    "lon": -91.037084416438,
    "price": "2000",
    "beds": "3",
    "baths": "3",
    "sqft": "1591",
    "url": "https://www.zillow.com/homedetails/5050-Stumberg-Ln-Baton-Rouge-LA-70816/66250313_zpid/"
  },
  {
    "id": "nr86",
    "address": "402 Lee Dr",
    "lat": 30.397221970381,
    "lon": -91.156603982405,
    "price": "1045",
    "beds": "1",
    "baths": "1",
    "sqft": "600",
    "url": "https://www.zillow.com/homedetails/402-Lee-Dr-APT-1C-Baton-Rouge-LA-70808/66275703_zpid/"
  },
  {
    "id": "nr87",
    "address": "710 Park Blvd",
    "lat": 30.441928962548,
    "lon": -91.169138102301,
    "price": "1800",
    "beds": "2",
    "baths": "1",
    "sqft": "1111",
    "url": "https://www.zillow.com/homedetails/710-Park-Blvd-APT-6-Baton-Rouge-LA-70806/66232124_zpid/"
  },
  {
    "id": "nr88",
    "address": "6765 Corporate Blvd",
    "lat": 30.425071676082,
    "lon": -91.123117953389,
    "price": "2100",
    "beds": "1",
    "baths": "1",
    "sqft": "700",
    "url": "https://www.zillow.com/homedetails/6765-Corporate-Blvd-APT-5103-Baton-Rouge-LA-70809/81892209_zpid/"
  },
  {
    "id": "nr89",
    "address": "1939 Terrace Ave",
    "lat": 30.436698909388,
    "lon": -91.168328336162,
    "price": "1900",
    "beds": "2",
    "baths": "1",
    "sqft": "1005",
    "url": "https://www.zillow.com/homedetails/1939-Terrace-Ave-Baton-Rouge-LA-70806/462761561_zpid/"
  },
  {
    "id": "nr90",
    "address": "814 Lonita St",
    "lat": 30.446647960899,
    "lon": -91.073473146321,
    "price": "1900",
    "beds": "3",
    "baths": "2",
    "sqft": "1678",
    "url": "https://www.zillow.com/homedetails/814-Lonita-St-Baton-Rouge-LA-70815/66301982_zpid/"
  },
  {
    "id": "nr91",
    "address": "8732 Jefferson Hwy",
    "lat": 30.4183347,
    "lon": -91.0918123,
    "price": "1700",
    "beds": "2",
    "baths": "3",
    "sqft": "1300",
    "url": "https://www.zillow.com/homedetails/8732-Jefferson-Hwy-Baton-Rouge-LA-70809/66236137_zpid/"
  },
  {
    "id": "nr92",
    "address": "2001 Red Stick Dr",
    "lat": 30.4321241,
    "lon": -91.0787175,
    "price": "2150",
    "beds": "3",
    "baths": "3",
    "sqft": "1559",
    "url": "https://www.zillow.com/homedetails/2001-Red-Stick-Dr-Baton-Rouge-LA-70815/338762417_zpid/"
  },
  {
    "id": "nr93",
    "address": "8212 Argosy Ct",
    "lat": 30.428278565825,
    "lon": -91.101003429648,
    "price": "1800",
    "beds": "3",
    "baths": "2",
    "sqft": "1433",
    "url": "https://www.zillow.com/homedetails/8212-Argosy-Ct-Baton-Rouge-LA-70809/66294635_zpid/"
  },
  {
    "id": "nr94",
    "address": "1046 Sedona Pines Dr",
    "lat": 30.455792675372,
    "lon": -91.009553313538,
    "price": "1950",
    "beds": "3",
    "baths": "2",
    "sqft": "1376",
    "url": "https://www.zillow.com/homedetails/1046-Sedona-Pines-Dr-Baton-Rouge-LA-70816/108613907_zpid/"
  },
  {
    "id": "nr95",
    "address": "2122 Stonehenge Ave",
    "lat": 30.387171913308,
    "lon": -91.183663003863,
    "price": "1550",
    "beds": "2",
    "baths": "2",
    "sqft": "1540",
    "url": "https://www.zillow.com/homedetails/2122-Stonehenge-Ave-Baton-Rouge-LA-70820/66345861_zpid/"
  },
  {
    "id": "nr96",
    "address": "8246 Ned Ave",
    "lat": 30.354859568872,
    "lon": -91.134603879488,
    "price": "750",
    "beds": "2",
    "baths": "2",
    "sqft": "990",
    "url": "https://www.zillow.com/homedetails/8246-Ned-Ave-APT-C-Baton-Rouge-LA-70820/2125853529_zpid/"
  },
  {
    "id": "nr97",
    "address": "350 E State St",
    "lat": 30.419078349283,
    "lon": -91.173725255741,
    "price": "1700",
    "beds": "3",
    "baths": "2",
    "sqft": "1350",
    "url": "https://www.zillow.com/homedetails/350-E-State-St-Baton-Rouge-LA-70802/66298152_zpid/"
  },
  {
    "id": "nr98",
    "address": "4009 Victory Dr",
    "lat": 30.4925913,
    "lon": -91.130654,
    "price": "1029",
    "beds": "0",
    "baths": "1",
    "sqft": "396",
    "url": "https://www.zillow.com/homedetails/4009-Victory-Dr-78704-Baton-Rouge-LA-70805/448455629_zpid/"
  },
  {
    "id": "nr99",
    "address": "1977 Cherrydale Ave",
    "lat": 30.418100737046,
    "lon": -91.156053652543,
    "price": "2500",
    "beds": "4",
    "baths": "2",
    "sqft": "1852",
    "url": "https://www.zillow.com/homedetails/1977-Cherrydale-Ave-Baton-Rouge-LA-70808/66276467_zpid/"
  },
  {
    "id": "nr100",
    "address": "1781 Province Pl",
    "lat": 30.4377898,
    "lon": -91.0461715,
    "price": "1100",
    "beds": "2",
    "baths": "3",
    "sqft": "1260",
    "url": "https://www.zillow.com/homedetails/1781-Province-Pl-DE-Baton-Rouge-LA-70816/2062948723_zpid/"
  },
  {
    "id": "nr101",
    "address": "8028 Valley St",
    "lat": 30.4258068,
    "lon": -91.1452741,
    "price": "2100",
    "beds": "3",
    "baths": "2",
    "sqft": "1124",
    "url": "https://www.zillow.com/homedetails/8028-Valley-St-Baton-Rouge-LA-70808/445810405_zpid/"
  },
  {
    "id": "nr102",
    "address": "10057 Jefferson Hwy",
    "lat": 30.409700052577,
    "lon": -91.071525686972,
    "price": "1800",
    "beds": "2",
    "baths": "2",
    "sqft": "1520",
    "url": "https://www.zillow.com/homedetails/10057-Jefferson-Hwy-Baton-Rouge-LA-70809/66354755_zpid/"
  }
]
